City_ID,City,Country,Date,Lat,Lng,Max Temp,Humidity,Cloudiness,Wind Speed
0,Rikitea,PF,2022-02-08 15:38:27,-23.1203,-134.9692,77.99,74,82,12.48
1,Bredasdorp,ZA,2022-02-08 15:38:27,-34.5322,20.0403,78.12,53,31,10.36
2,Vaini,TO,2022-02-08 15:38:28,-21.2,-175.2,75.36,100,75,4.61
3,Iquitos,PE,2022-02-08 15:38:28,-3.7481,-73.2472,77.04,88,75,4.61
4,Hobart,AU,2022-02-08 15:38:28,-42.8794,147.3294,59.05,78,75,5.75
5,Kaitangata,NZ,2022-02-08 15:38:29,-46.2817,169.8464,52.03,95,32,4.0
6,Atuona,PF,2022-02-08 15:38:29,-9.8,-139.0333,77.95,77,8,17.74
7,Airai,TL,2022-02-08 15:38:29,-8.9266,125.4092,61.23,94,91,1.41
8,Busselton,AU,2022-02-08 15:38:30,-33.65,115.3333,60.08,88,6,7.85
9,Bethel,US,2022-02-08 15:38:30,41.3712,-73.414,40.82,83,75,10.36
10,Vestmannaeyjar,IS,2022-02-08 15:38:30,63.4427,-20.2734,32.99,93,75,32.21
11,Castro,BR,2022-02-08 15:38:31,-24.7911,-50.0119,78.06,55,44,3.69
12,Pisco,PE,2022-02-08 15:38:31,-13.7,-76.2167,73.45,64,0,6.91
13,Aklavik,CA,2022-02-08 15:38:31,68.2191,-135.0107,-37.37,100,74,2.04
14,Pangnirtung,CA,2022-02-08 15:38:32,66.1451,-65.7125,-9.4,64,100,5.75
15,Tazovskiy,RU,2022-02-08 15:38:32,67.4667,78.7,-1.73,85,100,16.06
16,Cape Town,ZA,2022-02-08 15:36:38,-33.9258,18.4232,80.28,49,0,13.8
17,Ponta Do Sol,PT,2022-02-08 15:38:32,32.6667,-17.1,71.13,45,5,7.81
18,Det Udom,TH,2022-02-08 15:38:33,14.906,105.0784,87.91,40,65,3.67
19,Butaritari,KI,2022-02-08 15:38:33,3.0707,172.7902,81.45,78,54,15.08
20,Barrow,US,2022-02-08 15:38:33,71.2906,-156.7887,-30.98,100,0,5.75
21,Ancud,CL,2022-02-08 15:38:34,-41.8697,-73.8203,66.22,58,79,2.28
22,Auki,SB,2022-02-08 15:38:34,-8.7676,160.7034,78.1,89,100,7.9
23,Saint-Philippe,RE,2022-02-08 15:38:34,-21.3585,55.7679,80.19,84,66,9.53
24,Tasiilaq,GL,2022-02-08 15:38:35,65.6145,-37.6368,23.16,71,100,5.39
25,Bubaque,GW,2022-02-08 15:38:35,11.2833,-15.8333,78.48,66,21,13.2
26,Ushuaia,AR,2022-02-08 15:38:14,-54.8,-68.3,49.66,71,75,23.02
27,Alta Floresta,BR,2022-02-08 15:38:35,-9.8756,-56.0861,87.62,70,40,3.44
28,Punta Arenas,CL,2022-02-08 15:37:55,-53.15,-70.9167,53.71,58,75,21.85
29,Chokurdakh,RU,2022-02-08 15:38:36,70.6333,147.9167,-43.47,100,94,5.53
30,Agua Dulce,MX,2022-02-08 15:38:36,18.1333,-94.1333,64.18,91,100,25.66
31,Kruisfontein,ZA,2022-02-08 15:38:36,-34.0033,24.7314,74.88,50,4,8.48
32,North Bend,US,2022-02-08 15:38:37,43.4065,-124.2243,44.15,100,4,5.99
33,Waingapu,ID,2022-02-08 15:38:37,-9.6567,120.2641,79.56,84,87,4.65
34,Mahebourg,MU,2022-02-08 15:38:37,-20.4081,57.7,80.89,74,40,4.61
35,Astorga,BR,2022-02-08 15:38:37,-23.2325,-51.6656,82.8,54,1,6.22
36,Hasaki,JP,2022-02-08 15:38:38,35.7333,140.8333,36.28,61,99,13.0
37,Pacific Grove,US,2022-02-08 15:34:07,36.6177,-121.9166,54.16,66,0,5.75
38,Hithadhoo,MV,2022-02-08 15:38:38,-0.6,73.0833,82.92,68,100,14.79
39,Tuktoyaktuk,CA,2022-02-08 15:38:38,69.4541,-133.0374,-43.6,66,0,5.75
40,Pochutla,MX,2022-02-08 15:38:39,15.7432,-96.4661,80.82,75,84,0.96
41,Upernavik,GL,2022-02-08 15:38:39,72.7868,-56.1549,-15.72,85,100,5.55
42,Cabo San Lucas,MX,2022-02-08 15:37:01,22.8909,-109.9124,70.52,38,0,6.91
43,Port Elizabeth,ZA,2022-02-08 15:38:39,-33.918,25.5701,77.09,78,75,16.11
44,Poum,NC,2022-02-08 15:38:40,-20.2333,164.0167,81.48,85,100,25.55
45,Thinadhoo,MV,2022-02-08 15:38:40,0.5333,72.9333,82.92,68,100,14.12
46,Synya,RU,2022-02-08 15:39:40,65.3718,58.0387,7.36,82,100,9.17
47,Sinnamary,GF,2022-02-08 15:39:41,5.3833,-52.95,79.61,82,98,8.99
48,Torbay,CA,2022-02-08 15:35:31,47.6666,-52.7314,32.58,78,75,14.97
49,Chernushka,RU,2022-02-08 15:39:41,56.5072,56.0766,15.98,96,100,5.99
50,Chara,RU,2022-02-08 15:39:41,56.9064,118.2631,-11.31,87,97,0.65
51,Padang,ID,2022-02-08 15:37:36,-0.9492,100.3543,77.05,80,94,3.18
52,Kihei,US,2022-02-08 15:39:42,20.785,-156.4656,73.85,74,0,0.0
53,Santa Vitoria Do Palmar,BR,2022-02-08 15:39:42,-33.5189,-53.3681,74.48,48,87,9.24
54,Raudeberg,NO,2022-02-08 15:39:43,61.9875,5.1352,40.19,85,100,7.0
55,Bathsheba,BB,2022-02-08 15:39:43,13.2167,-59.5167,84.81,54,40,19.57
56,Carnarvon,AU,2022-02-08 15:39:43,-24.8667,113.6333,77.07,65,0,16.11
57,Avarua,CK,2022-02-08 15:39:43,-21.2078,-159.775,77.05,83,20,8.05
58,Chuy,UY,2022-02-08 15:39:44,-33.6971,-53.4616,72.5,51,87,9.06
59,Kodiak,US,2022-02-08 15:39:44,57.79,-152.4072,33.31,69,0,16.11
60,Soe,ID,2022-02-08 15:39:44,-9.8607,124.284,68.05,92,100,3.02
61,Georgetown,MY,2022-02-08 15:38:56,5.4112,100.3354,78.89,92,20,2.3
62,Porrentruy,CH,2022-02-08 15:39:45,47.4153,7.0752,51.6,75,2,2.01
63,Flinders,AU,2022-02-08 15:39:45,-34.5833,150.8552,64.8,85,6,5.37
64,Longyearbyen,SJ,2022-02-08 15:39:45,78.2186,15.6401,19.24,68,75,11.5
65,Brokopondo,SR,2022-02-08 15:39:45,4.75,-55.1667,82.18,69,59,2.06
66,Oum Hadjer,TD,2022-02-08 15:39:46,13.2954,19.6966,85.21,9,0,4.92
67,Kapaa,US,2022-02-08 15:39:46,22.0752,-159.319,71.92,82,0,13.8
68,Havre-Saint-Pierre,CA,2022-02-08 15:39:46,50.2334,-63.5986,21.79,85,100,18.41
69,Hammerfest,NO,2022-02-08 15:39:47,70.6634,23.6821,31.73,74,20,20.71
70,Tiksi,RU,2022-02-08 15:39:47,71.6872,128.8694,-23.44,99,58,7.31
71,Hailar,CN,2022-02-08 15:39:47,49.2,119.7,4.23,95,99,7.14
72,Chernyshevskiy,RU,2022-02-08 15:39:48,63.0128,112.4714,-18.96,97,100,4.34
73,Qaanaaq,GL,2022-02-08 15:39:48,77.484,-69.3632,-9.69,95,100,6.51
74,Mataura,NZ,2022-02-08 15:39:48,-46.1927,168.8643,49.48,99,37,2.59
75,Gamba,GA,2022-02-08 15:39:49,-2.65,10.0,80.55,81,100,8.9
76,Iqaluit,CA,2022-02-08 15:39:49,63.7506,-68.5145,-2.31,70,100,13.8
77,Tromso,NO,2022-02-08 15:39:49,69.6496,18.957,32.02,59,75,18.41
78,Atambua,ID,2022-02-08 15:38:38,-9.1061,124.8925,74.48,91,97,2.68
79,Yellowknife,CA,2022-02-08 15:35:48,62.456,-114.3525,-18.58,77,75,6.91
80,Karur,IN,2022-02-08 15:39:50,10.95,78.0833,75.06,66,24,13.44
81,The Pas,CA,2022-02-08 15:39:50,53.8251,-101.2541,33.82,93,100,19.57
82,Quelimane,MZ,2022-02-08 15:39:50,-17.8786,36.8883,82.35,78,75,11.5
83,Chifeng,CN,2022-02-08 15:39:51,42.2683,118.9636,21.97,42,62,6.33
84,Dukat,RU,2022-02-08 15:39:51,62.55,155.55,-21.37,68,94,2.55
85,Praya,CV,2022-02-08 15:39:51,14.9215,-23.5087,82.94,42,0,11.5
86,Havre,FR,2022-02-08 15:39:52,49.5833,0.3333,51.44,87,100,11.5
87,Bluff,NZ,2022-02-08 15:39:52,-46.6,168.3333,49.8,91,34,10.07
88,Tilichiki,RU,2022-02-08 15:39:52,60.4667,166.1,-16.53,88,71,9.24
89,Balabac,PH,2022-02-08 15:39:53,7.9868,117.0645,80.17,84,98,13.56
90,Makushino,RU,2022-02-08 15:40:53,55.2103,67.2442,13.5,94,59,10.0
91,Sioux Lookout,CA,2022-02-08 15:40:32,50.1001,-91.917,14.07,79,75,13.8
92,Saskylakh,RU,2022-02-08 15:40:53,71.9167,114.0833,-1.39,88,100,12.57
93,Chicama,PE,2022-02-08 15:40:54,-7.8447,-79.1469,70.34,58,61,8.68
94,Jamestown,US,2022-02-08 15:39:45,42.097,-79.2353,29.08,63,100,14.0
95,Paamiut,GL,2022-02-08 15:40:54,61.994,-49.6678,0.01,79,49,8.01
96,Port Alfred,ZA,2022-02-08 15:40:54,-33.5906,26.891,79.61,74,1,13.65
97,Hermanus,ZA,2022-02-08 15:38:12,-34.4187,19.2345,76.89,77,16,9.57
98,Oktyabrskiy,RU,2022-02-08 15:40:55,54.4815,53.471,16.0,97,100,2.24
99,Ponta Delgada,PT,2022-02-08 15:36:00,37.7333,-25.6667,63.5,72,40,6.91
100,Lata,PT,2022-02-08 15:40:55,40.1629,-8.3327,70.03,43,0,7.14
101,Albany,US,2022-02-08 15:38:27,42.6001,-73.9662,36.12,77,93,10.0
102,Dudinka,RU,2022-02-08 15:40:56,69.4058,86.1778,-2.38,92,100,19.84
103,Nong Ki,TH,2022-02-08 15:40:56,14.6868,102.538,89.62,43,92,3.51
104,Santa Rosa,PH,2022-02-08 15:40:56,14.3122,121.1114,81.1,78,16,11.74
105,Sunyani,GH,2022-02-08 15:40:56,7.3399,-2.3268,98.83,10,19,5.97
106,College,US,2022-02-08 15:40:57,64.8569,-147.8028,-4.05,77,75,5.75
107,Rio Gallegos,AR,2022-02-08 15:40:57,-51.6226,-69.2181,59.05,31,40,28.77
108,Touros,BR,2022-02-08 15:40:57,-5.1989,-35.4608,88.7,54,65,15.12
109,Ust-Nera,RU,2022-02-08 15:40:58,64.5667,143.2,-27.31,89,86,2.73
110,Tieli,CN,2022-02-08 15:40:58,46.95,128.05,-1.21,100,100,4.18
111,Kamarion,GR,2022-02-08 15:40:58,36.8,25.8167,45.82,79,93,41.36
112,Hohhot,CN,2022-02-08 15:40:59,40.8106,111.6522,10.69,52,0,4.47
113,Ulladulla,AU,2022-02-08 15:40:59,-35.35,150.4667,61.7,89,32,3.29
114,Aksay,RU,2022-02-08 15:40:59,47.26,39.87,43.02,80,100,8.99
115,Nanortalik,GL,2022-02-08 15:41:00,60.1432,-45.2371,13.73,58,1,37.02
116,Salalah,OM,2022-02-08 15:41:00,17.0151,54.0924,78.89,13,0,19.57
117,Bengkulu,ID,2022-02-08 15:41:01,-3.8004,102.2655,76.59,85,100,5.84
118,Puri,IN,2022-02-08 15:41:01,19.8,85.85,72.12,68,38,9.22
119,San Cristobal,VE,2022-02-08 15:41:01,7.7669,-72.225,73.58,48,86,6.2
120,Hovd,MN,2022-02-08 15:41:02,48.0056,91.6419,-10.1,76,17,3.69
121,Zemio,CF,2022-02-08 15:41:02,5.0314,25.1361,90.03,19,80,1.21
122,Takaungu,KE,2022-02-08 15:41:02,-3.6837,39.8566,84.69,77,0,11.9
123,Alibag,IN,2022-02-08 15:41:03,18.6411,72.8792,75.27,73,3,7.27
124,Cidreira,BR,2022-02-08 15:41:03,-30.1811,-50.2056,77.77,57,6,13.6
125,Yar-Sale,RU,2022-02-08 15:41:03,66.8333,70.8333,1.78,89,100,15.73
126,Lamu,KE,2022-02-08 15:41:04,-2.2717,40.902,84.42,82,2,17.74
127,Palafrugell,ES,2022-02-08 15:41:04,41.9174,3.1631,57.34,47,3,4.0
128,Samfya,ZM,2022-02-08 15:41:04,-11.3649,29.5565,72.63,82,73,3.15
129,Korla,CN,2022-02-08 15:38:33,41.7597,86.1469,26.92,45,29,3.58
130,Namibe,AO,2022-02-08 15:41:05,-15.1961,12.1522,77.4,66,84,12.66
131,Ejura,GH,2022-02-08 15:41:05,7.3856,-1.3562,99.01,11,6,5.75
132,Khatanga,RU,2022-02-08 15:41:06,71.9667,102.5,3.29,80,100,18.68
133,Kiunga,PG,2022-02-08 15:41:06,-6.1219,141.2906,73.8,99,100,4.12
134,La Cruz,MX,2022-02-08 15:41:06,23.9167,-106.9,69.12,25,0,4.25
135,Dingle,PH,2022-02-08 15:41:07,10.9995,122.6711,75.4,91,72,8.28
136,Matelandia,BR,2022-02-08 15:41:07,-25.2408,-53.9964,79.68,24,0,4.47
137,Kununurra,AU,2022-02-08 15:41:07,-15.7667,128.7333,80.58,94,47,3.44
138,Awjilah,LY,2022-02-08 15:41:08,29.1081,21.2869,63.77,49,44,17.58
139,Whitecourt,CA,2022-02-08 15:42:08,54.1502,-115.6855,34.84,55,75,10.36
140,Clyde River,CA,2022-02-08 15:42:08,70.4692,-68.5914,-27.17,68,75,4.61
141,Okuchi,JP,2022-02-08 15:42:09,32.0667,130.6167,31.87,98,33,3.06
142,Lensk,RU,2022-02-08 15:42:09,60.7253,114.9278,-8.52,98,100,3.22
143,Alofi,NU,2022-02-08 15:42:09,-19.0595,-169.9187,73.29,94,100,5.75
144,Rawson,AR,2022-02-08 15:42:10,-43.3002,-65.1023,80.62,34,99,11.92
145,Bambous Virieux,MU,2022-02-08 15:42:10,-20.3428,57.7575,80.85,74,40,4.61
146,Faanui,PF,2022-02-08 15:42:10,-16.4833,-151.75,81.55,76,100,18.01
147,Tank,PK,2022-02-08 15:42:10,32.2217,70.3793,60.15,43,53,1.28
148,Arraial Do Cabo,BR,2022-02-08 15:38:13,-22.9661,-42.0278,73.36,100,100,12.66
149,Cherskiy,RU,2022-02-08 15:42:11,68.75,161.3,-40.7,100,82,3.89
150,Hilo,US,2022-02-08 15:41:19,19.7297,-155.09,66.25,84,0,8.05
151,Voloshka,RU,2022-02-08 15:42:11,61.3314,40.0858,26.98,96,99,6.44
152,Basco,PH,2022-02-08 15:42:12,20.4487,121.9702,73.47,85,100,25.57
153,Komsomolskiy,UZ,2022-02-08 15:42:12,40.4272,71.7189,36.82,80,99,2.3
154,Mareeba,AU,2022-02-08 15:42:12,-17.0,145.4333,74.12,94,71,2.06
155,Suamico,US,2022-02-08 15:42:12,44.6319,-88.0393,29.17,66,0,9.22
156,Nam Dinh,VN,2022-02-08 15:42:13,20.4167,106.1667,62.11,93,100,7.29
157,Saint-Augustin,CA,2022-02-08 15:42:13,51.226,-58.6502,14.14,89,96,9.78
158,Baghdad,IQ,2022-02-08 15:38:14,33.3406,44.4009,64.31,34,0,0.0
159,Puerto Ayora,EC,2022-02-08 15:42:13,-0.7393,-90.3518,78.76,71,23,7.61
160,New Norfolk,AU,2022-02-08 15:42:14,-42.7826,147.0587,58.71,70,74,2.08
161,Port Lincoln,AU,2022-02-08 15:42:14,-34.7333,135.8667,62.69,90,1,8.25
162,Tongliao,CN,2022-02-08 15:42:14,43.6125,122.2653,11.91,87,5,8.37
163,Ixtapa,MX,2022-02-08 15:40:36,20.7,-105.2,63.63,88,0,3.44
164,Juneau,US,2022-02-08 15:40:45,58.3019,-134.4197,39.85,96,100,18.41
165,Golden,US,2022-02-08 15:39:53,39.7555,-105.2211,47.89,35,0,4.61
166,Mount Isa,AU,2022-02-08 15:42:15,-20.7333,139.5,78.57,78,92,0.0
167,Saint-Francois,FR,2022-02-08 15:42:15,46.4154,3.9054,51.42,54,0,2.3
168,Surgut,RU,2022-02-08 15:42:15,61.25,73.4167,-4.92,76,0,8.99
169,Victoria,HK,2022-02-08 15:37:20,22.2855,114.1577,62.26,83,100,4.0
170,Te Anau,NZ,2022-02-08 15:42:16,-45.4167,167.7167,54.07,91,75,1.59
171,Honningsvag,NO,2022-02-08 15:42:16,70.9821,25.9704,29.95,69,75,31.07
172,Ostrovnoy,RU,2022-02-08 15:40:27,68.0531,39.5131,15.89,89,100,15.99
173,Saint George,US,2022-02-08 15:41:01,37.1041,-113.5841,51.35,51,0,3.44
174,Palm Bay,US,2022-02-08 15:42:17,28.0345,-80.5887,64.44,85,0,14.0
175,Surin,TH,2022-02-08 15:42:17,14.8818,103.4936,84.9,61,8,5.32
176,San Julian,MX,2022-02-08 15:42:17,21.0167,-102.1667,49.48,61,3,3.29
177,Lorengau,PG,2022-02-08 15:42:05,-2.0226,147.2712,81.01,82,100,8.23
178,Yatou,CN,2022-02-08 15:42:18,37.15,122.3833,31.3,56,97,2.17
179,Loa Janan,ID,2022-02-08 15:42:18,-0.583,117.095,73.62,99,100,3.91
180,Deputatskiy,RU,2022-02-08 15:43:19,69.3,139.9,-36.83,99,67,4.68
181,Kamenka,RU,2022-02-08 15:43:19,51.3223,42.7678,32.76,98,100,14.83
182,Mao,ES,2022-02-08 15:43:19,39.8885,4.2658,55.96,76,40,10.36
183,Belo Jardim,BR,2022-02-08 15:39:54,-8.3356,-36.4242,91.53,28,6,7.49
184,Areosa,PT,2022-02-08 15:43:20,41.7178,-8.8571,69.24,51,0,4.47
185,Egvekinot,RU,2022-02-08 15:43:20,66.3167,-179.1667,-17.12,66,0,14.54
186,Ilulissat,GL,2022-02-08 15:41:37,69.2167,-51.1,-3.98,65,40,12.66
187,Contamana,PE,2022-02-08 15:43:20,-7.3333,-75.0167,83.34,70,81,1.79
188,Gari,RU,2022-02-08 15:43:21,59.4307,62.3497,6.89,98,99,5.03
189,Lagoa,PT,2022-02-08 15:43:21,39.05,-27.9833,59.29,71,100,9.01
190,Half Moon Bay,US,2022-02-08 15:43:21,37.4636,-122.4286,56.25,86,40,3.44
191,Fairbanks,US,2022-02-08 15:40:02,64.8378,-147.7164,-4.04,77,0,5.75
192,Broome,US,2022-02-08 15:42:36,42.2506,-75.833,30.85,78,100,5.75
193,Saldanha,ZA,2022-02-08 15:43:22,-33.0117,17.9442,77.05,85,55,14.94
194,Esperance,AU,2022-02-08 15:43:22,-33.8667,121.9,60.64,64,29,2.19
195,Puerto Colombia,CO,2022-02-08 15:43:22,10.9878,-74.9547,84.29,63,56,8.52
196,Mount Gambier,AU,2022-02-08 15:43:23,-37.8333,140.7667,67.91,68,100,9.22
197,Paidha,UG,2022-02-08 15:43:23,2.4167,30.9855,74.39,31,69,1.34
198,Sechura,PE,2022-02-08 15:43:23,-5.5569,-80.8222,78.12,59,100,3.33
199,Ishigaki,JP,2022-02-08 15:40:29,24.3448,124.1572,66.88,75,100,23.24
200,Zadar,HR,2022-02-08 15:43:24,44.1197,15.2422,50.61,43,0,14.97
201,Santa Cruz,BO,2022-02-08 15:39:44,-17.8,-63.1667,86.05,45,40,14.97
202,Baykit,RU,2022-02-08 15:43:24,61.67,96.37,-20.42,98,10,3.31
203,Murshidabad,IN,2022-02-08 15:43:24,24.1833,88.2667,64.08,49,0,5.12
204,Aden,YE,2022-02-08 15:41:25,12.7794,45.0367,77.54,72,61,15.86
205,Campo Verde,BR,2022-02-08 15:43:25,-20.4167,-54.0667,83.41,42,0,4.63
206,Necochea,AR,2022-02-08 15:42:14,-38.5473,-58.7368,78.04,43,0,4.14
207,Bernalillo,US,2022-02-08 15:43:25,35.05,-106.6673,42.55,52,20,4.61
208,Santa Isabel,BR,2022-02-08 15:41:50,-23.3156,-46.2214,79.66,82,97,4.92
209,Farafangana,MG,2022-02-08 15:43:26,-22.8167,47.8333,78.49,92,99,14.79
210,Maceio,BR,2022-02-08 15:43:26,-9.6658,-35.7353,89.04,48,40,12.66
211,Nola,IT,2022-02-08 15:43:26,40.922,14.5329,57.9,32,1,14.0
212,Aksarka,RU,2022-02-08 15:43:26,66.5606,67.7975,-5.33,100,100,9.31
213,Mehamn,NO,2022-02-08 15:43:27,71.0357,27.8492,30.38,88,77,18.07
214,Manaure,CO,2022-02-08 15:43:27,11.7751,-72.4445,84.31,59,37,12.62
215,Klaksvik,FO,2022-02-08 15:43:27,62.2266,-6.589,34.72,68,98,39.84
216,Ulaangom,MN,2022-02-08 15:43:28,49.9811,92.0667,-24.81,93,94,2.77
217,Port Blair,IN,2022-02-08 15:43:28,11.6667,92.75,80.64,74,40,8.05
218,Xicotencatl,MX,2022-02-08 15:43:28,23.0167,-98.8833,56.03,73,99,2.48
219,Tongren,CN,2022-02-08 15:43:29,27.7172,109.1853,33.64,98,100,2.8
220,Zhigansk,RU,2022-02-08 15:43:29,66.7697,123.3711,-34.28,100,94,6.98
221,Hami,CN,2022-02-08 15:43:29,42.8,93.45,25.9,39,33,3.58
222,Hudson Bay,CA,2022-02-08 15:43:30,52.85,-102.3842,25.72,85,99,16.04
223,Alekseyevsk,RU,2022-02-08 15:43:30,57.8406,108.3492,-4.61,97,100,4.43
224,Dikson,RU,2022-02-08 15:43:30,73.5069,80.5464,4.15,93,100,21.81
225,Sao Filipe,CV,2022-02-08 15:42:06,14.8961,-24.4956,73.71,70,0,8.19
226,Kormilovka,RU,2022-02-08 15:44:31,55.0026,74.1028,10.15,98,93,5.3
227,Narsaq,GL,2022-02-08 15:40:24,60.9167,-46.05,-0.18,59,9,8.72
228,Husavik,IS,2022-02-08 15:44:31,66.0449,-17.3389,28.31,95,100,25.5
229,Walvis Bay,NA,2022-02-08 15:44:31,-22.9575,14.5053,76.08,77,52,7.02
230,Delemont,CH,2022-02-08 15:44:32,47.3649,7.3445,51.67,66,4,0.89
231,East London,ZA,2022-02-08 15:44:32,-33.0153,27.9116,83.34,69,0,13.8
232,Sakakah,SA,2022-02-08 15:44:32,29.9697,40.2064,69.37,26,0,6.73
233,Ribeira Grande,PT,2022-02-08 15:44:33,38.5167,-28.7,64.8,68,20,9.22
234,Hamilton,US,2022-02-08 15:42:57,39.1834,-84.5333,29.41,73,100,10.36
235,Kokoda,PG,2022-02-08 15:44:33,-8.8785,147.7407,74.62,94,100,1.28
236,Inyonga,TZ,2022-02-08 15:44:33,-6.7167,32.0667,69.44,87,50,1.57
237,Bardiyah,LY,2022-02-08 15:44:34,31.7561,25.0865,54.21,77,31,27.11
238,Nikolskoye,RU,2022-02-08 15:44:34,59.7035,30.7861,30.09,97,100,3.71
239,Ngama,TD,2022-02-08 15:44:34,11.7833,17.1667,91.08,8,5,9.46
240,Innisfail,AU,2022-02-08 15:44:35,-17.5333,146.0333,72.52,90,64,3.27
241,Iisalmi,FI,2022-02-08 15:44:35,63.5592,27.1907,24.82,95,100,5.32
242,Thompson,CA,2022-02-08 15:44:35,55.7435,-97.8558,19.56,86,100,4.61
243,Marsaxlokk,MT,2022-02-08 15:44:36,35.8419,14.5431,57.07,41,20,9.22
244,Otofuke,JP,2022-02-08 15:44:36,42.9917,143.2003,7.77,91,16,5.23
245,Baringo,KE,2022-02-08 15:44:36,0.4667,35.9667,83.35,25,47,19.62
246,Presidencia Roque Saenz Pena,AR,2022-02-08 15:44:36,-26.7852,-60.4388,91.78,15,3,3.42
247,Manzhouli,CN,2022-02-08 15:44:37,49.6,117.4333,1.53,97,49,6.96
248,Luderitz,NA,2022-02-08 15:44:37,-26.6481,15.1594,75.88,64,4,5.39
249,Reo,BF,2022-02-08 15:44:37,12.3167,-2.4667,94.87,8,79,10.29
250,Chadiza,ZM,2022-02-08 15:44:38,-14.0678,32.4392,69.85,89,66,1.32
251,Hambantota,LK,2022-02-08 15:44:38,6.1241,81.1185,79.14,78,20,12.66
252,Hofn,IS,2022-02-08 15:44:38,64.2539,-15.2082,32.52,81,100,28.45
253,Gwadar,PK,2022-02-08 15:44:39,25.1216,62.3254,71.29,57,0,14.36
254,Bima,ID,2022-02-08 15:44:39,-8.4667,118.7167,76.91,93,100,1.05
255,Kande,TG,2022-02-08 15:44:40,9.9578,1.0447,95.34,7,3,5.26
256,Gashua,NG,2022-02-08 15:44:40,12.871,11.0482,87.17,8,80,12.93
257,Provideniya,RU,2022-02-08 15:44:40,64.3833,-173.3,-15.45,86,1,11.74
258,Olafsvik,IS,2022-02-08 15:40:24,64.8945,-23.7142,32.32,85,100,29.46
259,Severo-Kurilsk,RU,2022-02-08 15:44:41,50.6789,156.125,30.15,97,96,16.55
260,Sorong,ID,2022-02-08 15:44:41,-0.8833,131.25,76.33,93,100,4.29
261,Boffa,GN,2022-02-08 15:44:41,10.1667,-14.0333,90.5,46,89,13.96
262,Nuuk,GL,2022-02-08 15:41:50,64.1835,-51.7216,5.61,72,75,16.11
263,Oriximina,BR,2022-02-08 15:44:42,-1.7656,-55.8661,88.2,59,67,2.71
264,Qaqortoq,GL,2022-02-08 15:44:42,60.7167,-46.0333,0.1,52,0,18.34
265,Northam,GB,2022-02-08 15:44:42,51.0333,-4.2167,53.38,86,75,16.44
266,Zhangye,CN,2022-02-08 15:44:43,38.9342,100.4517,17.46,71,92,3.11
267,Emerald,AU,2022-02-08 15:44:43,-23.5333,148.1667,77.14,69,100,10.36
268,Thunder Bay,CA,2022-02-08 15:42:09,48.4001,-89.3168,27.55,88,75,4.61
269,Gigmoto,PH,2022-02-08 15:44:43,13.7796,124.39,77.58,79,98,10.74
270,Singaraja,ID,2022-02-08 15:45:44,-8.112,115.0882,83.97,87,89,6.89
271,Cozumel,MX,2022-02-08 15:45:44,20.5083,-86.9458,77.95,83,20,3.44
272,Vila Velha,BR,2022-02-08 15:45:45,-20.3297,-40.2925,89.55,67,20,12.66
273,Norman Wells,CA,2022-02-08 15:45:45,65.282,-126.8329,-30.96,68,75,2.3
274,El Dorado,US,2022-02-08 15:45:45,38.7666,-120.5177,55.42,51,9,8.79
275,Palauig,PH,2022-02-08 15:45:46,15.435,119.9045,78.28,79,8,4.9
276,Keti Bandar,PK,2022-02-08 15:45:46,24.1447,67.4497,71.2,63,0,11.41
277,Zeya,RU,2022-02-08 15:45:46,53.75,127.2667,-6.39,98,22,3.62
278,Leningradskiy,RU,2022-02-08 15:45:46,69.3833,178.4167,-26.63,82,17,3.6
279,Sangmelima,CM,2022-02-08 15:45:47,2.9333,11.9833,93.27,14,7,3.13
280,Coolum Beach,AU,2022-02-08 15:45:47,-26.5333,153.1,70.11,85,3,7.18
281,Liverpool,GB,2022-02-08 15:45:47,53.4106,-2.9779,55.69,85,75,18.41
282,Maldonado,UY,2022-02-08 15:45:48,-34.6667,-54.9167,74.59,55,95,6.96
283,Yuryevets,RU,2022-02-08 15:45:48,57.3201,43.1041,30.6,98,100,10.56
284,Kieta,PG,2022-02-08 15:45:48,-6.2167,155.6333,80.1,86,100,5.03
285,Viedma,AR,2022-02-08 15:45:49,-40.8135,-62.9967,89.53,22,95,13.56
286,Horodnytsya,UA,2022-02-08 15:45:49,50.807,27.3168,29.84,91,90,8.61
287,Souillac,MU,2022-02-08 15:45:49,-20.5167,57.5167,80.98,74,40,4.61
288,Vichuga,RU,2022-02-08 15:45:50,57.2128,41.9301,31.77,99,100,8.23
289,Lompoc,US,2022-02-08 15:41:18,34.6391,-120.4579,63.79,70,40,5.75
290,Canico,PT,2022-02-08 15:45:50,32.6333,-16.85,71.13,77,20,5.75
291,Namanga,KE,2022-02-08 15:45:50,-2.5433,36.7905,77.36,40,79,15.77
292,Yumen,CN,2022-02-08 15:40:58,40.2833,97.2,20.07,51,2,9.06
293,Geraldton,AU,2022-02-08 15:45:51,-28.7667,114.6,68.41,73,0,11.5
294,Lubao,PH,2022-02-08 15:45:51,14.9167,120.55,80.62,83,31,5.61
295,Tecoanapa,MX,2022-02-08 15:45:51,16.5167,-98.75,81.14,58,1,2.91
296,Kharan,PK,2022-02-08 15:44:25,28.5833,65.4167,61.3,27,44,10.33
297,Dhidhdhoo,MV,2022-02-08 15:45:52,6.8833,73.1,81.86,65,91,12.66
298,Rudnya,RU,2022-02-08 15:45:52,54.947,31.0934,30.33,93,100,8.63
299,Pueblo Bello,CO,2022-02-08 15:45:52,8.2041,-76.526,79.3,77,63,4.14
300,Tabou,CI,2022-02-08 15:45:53,4.423,-7.3528,83.1,70,68,11.03
301,Kaeo,NZ,2022-02-08 15:45:53,-35.1,173.7833,74.32,98,80,7.54
302,Minot,US,2022-02-08 15:45:54,48.2325,-101.2963,36.59,69,20,26.46
303,Daru,PG,2022-02-08 15:45:54,-9.0763,143.2092,79.81,83,95,3.65
304,Harrison,US,2022-02-08 15:45:54,30.4091,-89.0436,52.34,61,0,8.05
305,Bani Walid,LY,2022-02-08 15:45:54,31.7566,13.9942,58.86,50,67,14.94
306,Yen Bai,VN,2022-02-08 15:45:55,21.7,104.8667,62.28,96,100,2.26
307,Polazna,RU,2022-02-08 15:45:55,58.2946,56.4055,13.39,95,94,7.0
308,Maxixe,MZ,2022-02-08 15:45:55,-23.8597,35.3472,85.82,51,40,11.5
309,Syriam,MM,2022-02-08 15:45:56,16.7722,96.2378,75.31,83,7,3.44
310,Codrington,AU,2022-02-08 15:45:56,-38.2667,141.9667,65.98,66,99,4.9
311,Camacha,PT,2022-02-08 15:45:56,33.0833,-16.3333,63.82,77,20,17.27
312,Batagay-Alyta,RU,2022-02-08 15:45:57,67.8006,130.4114,-32.94,97,84,4.18
313,Vrangel,RU,2022-02-08 15:45:57,42.7297,133.0839,23.56,54,0,5.86
314,Kenai,US,2022-02-08 15:45:04,60.5544,-151.2583,30.09,91,100,19.57
315,Kalabo,ZM,2022-02-08 15:46:58,-14.97,22.6814,74.26,81,96,4.74
316,Coquimbo,CL,2022-02-08 15:46:58,-29.9533,-71.3436,65.93,77,100,6.91
317,Saint Anthony,US,2022-02-08 15:46:52,45.0205,-93.218,29.48,76,0,5.75
318,Staines,GB,2022-02-08 15:46:58,51.4309,-0.5061,55.4,69,100,14.97
319,Les Cayes,HT,2022-02-08 15:46:59,18.2,-73.75,81.66,66,30,11.12
320,Zemes,RO,2022-02-08 15:46:59,46.5833,26.4167,29.61,83,11,5.19
321,Ugoofaaru,MV,2022-02-08 15:46:59,5.6667,73.0,81.55,70,53,12.37
322,Scottsbluff,US,2022-02-08 15:46:59,41.8666,-103.6672,43.79,38,0,15.01
323,Udachnyy,RU,2022-02-08 15:47:00,66.4167,112.4,-36.24,100,54,3.98
324,Havelock,US,2022-02-08 15:47:00,34.8791,-76.9013,44.58,94,100,3.0
325,Esmeraldas,BR,2022-02-08 15:47:00,-19.7625,-44.3139,80.71,87,100,7.2
326,Tuatapere,NZ,2022-02-08 15:47:01,-46.1333,167.6833,49.82,95,65,3.89
327,Lipin Bor,RU,2022-02-08 15:47:01,60.2622,37.9763,29.41,95,100,8.1
328,Mumford,GH,2022-02-08 15:47:02,5.2618,-0.759,82.83,74,91,15.32
329,Margate,GB,2022-02-08 15:47:02,51.3813,1.3862,54.91,68,26,5.01
330,Guerrero Negro,MX,2022-02-08 15:47:02,27.9769,-114.0611,63.25,39,4,3.0
331,Ibotirama,BR,2022-02-08 15:47:03,-12.1853,-43.2206,91.18,40,100,3.24
332,Goundam,ML,2022-02-08 15:47:03,16.4145,-3.6708,88.75,5,0,12.33
333,Pokhara,NP,2022-02-08 15:47:03,28.2333,83.9833,51.26,83,75,1.97
334,Youhao,CN,2022-02-08 15:47:04,47.8667,128.8333,-6.45,100,94,0.31
335,Kiruna,SE,2022-02-08 15:47:04,67.8557,20.2251,20.32,93,100,6.91
336,Moussoro,TD,2022-02-08 15:47:04,13.6408,16.4901,85.15,5,0,11.34
337,Blagoevgrad,BG,2022-02-08 15:47:05,42.0167,23.1,32.68,79,87,11.61
338,Coihaique,CL,2022-02-08 15:43:37,-45.5752,-72.0662,62.55,39,40,6.91
339,Flin Flon,CA,2022-02-08 15:45:32,54.7682,-101.865,33.64,80,75,18.41
340,Dresden,DE,2022-02-08 15:47:05,51.0509,13.7383,47.98,77,75,16.11
341,Kopayhorod,UA,2022-02-08 15:47:06,48.8592,27.7969,32.4,84,100,11.45
342,Osterburg,DE,2022-02-08 15:47:06,52.7833,11.7667,53.51,89,100,16.33
343,Maamba,ZM,2022-02-08 15:47:06,-17.3667,27.15,76.64,79,54,3.18
344,Hearst,CA,2022-02-08 15:47:06,49.6835,-83.6665,8.85,86,47,6.96
345,Iwanai,JP,2022-02-08 15:47:07,42.9744,140.5089,25.05,80,100,8.28
346,Jiuquan,CN,2022-02-08 15:47:07,39.7432,98.5174,19.44,69,29,4.41
347,San Quintin,MX,2022-02-08 15:47:08,30.4833,-115.95,62.82,30,15,0.87
348,Cabo Rojo,PR,2022-02-08 15:42:54,18.0866,-67.1457,84.09,66,8,5.99
349,Port Hedland,AU,2022-02-08 15:47:08,-20.3167,118.5667,78.85,100,95,6.91
350,Lebu,CL,2022-02-08 15:47:08,-37.6167,-73.65,67.08,72,80,17.96
351,Luyang,CN,2022-02-08 15:47:08,27.6239,110.0989,32.94,99,100,3.0
352,Palmer,US,2022-02-08 15:47:09,42.1584,-72.3287,41.07,84,75,8.05
353,Morant Bay,JM,2022-02-08 15:47:09,17.8815,-76.4093,80.22,69,7,7.58
354,Bhindar,IN,2022-02-08 15:47:09,24.5,74.1833,64.65,43,4,5.32
355,Sol-Iletsk,RU,2022-02-08 15:47:10,51.1631,54.9918,9.45,99,100,4.03
356,Ayan,RU,2022-02-08 15:47:10,56.45,138.1667,7.27,78,100,6.24
357,Mangawan,IN,2022-02-08 15:47:10,24.6833,81.55,61.56,52,0,8.37
358,Evensk,RU,2022-02-08 15:47:11,61.95,159.2333,-4.45,70,9,8.59
359,Hushitai,CN,2022-02-08 15:47:11,41.9322,123.5114,25.95,64,1,5.39
360,Tambacounda,SN,2022-02-08 15:47:11,13.7539,-13.7586,104.05,7,0,13.8
361,Prizren,XK,2022-02-08 15:44:02,42.2139,20.7397,37.04,83,95,3.42
362,Koumra,TD,2022-02-08 15:47:12,8.9126,17.5539,94.93,8,74,5.26
363,Chimbote,PE,2022-02-08 15:44:47,-9.0853,-78.5783,75.42,67,44,7.81
364,Urengoy,RU,2022-02-08 15:48:12,65.9667,78.3667,-8.27,90,99,11.32
365,Kiama,AU,2022-02-08 15:48:12,-34.6833,150.8667,64.99,90,6,5.61
366,Praia Da Vitoria,PT,2022-02-08 15:48:13,38.7333,-27.0667,62.76,88,75,8.55
367,Develi,TR,2022-02-08 15:48:13,38.3906,35.4922,45.75,90,82,14.9
368,Nhulunbuy,AU,2022-02-08 15:48:13,-12.2333,136.7667,79.41,89,40,0.0
369,Kisanga,TZ,2022-02-08 15:48:14,-7.4362,37.7034,77.25,88,99,3.76
370,Saint-Joseph,RE,2022-02-08 15:48:14,-21.3667,55.6167,79.18,82,50,8.99
371,Alice Springs,AU,2022-02-08 15:43:33,-23.7,133.8833,78.35,61,67,6.91
372,Puerto Armuelles,PA,2022-02-08 15:48:14,8.2833,-82.8667,88.83,60,38,4.07
373,Azad Shahr,IR,2022-02-08 15:48:15,34.7909,48.5707,39.76,38,0,11.5
374,Samarai,PG,2022-02-08 15:48:15,-10.6167,150.6667,80.8,79,58,3.53
375,Kitob,UZ,2022-02-08 15:48:15,39.0843,66.8332,36.18,81,57,3.96
376,Eirunepe,BR,2022-02-08 15:48:16,-6.6603,-69.8736,72.86,99,100,1.16
377,Waipawa,NZ,2022-02-08 15:48:16,-41.4122,175.5153,60.46,97,99,4.36
378,Beitbridge,ZW,2022-02-08 15:48:16,-22.2167,30.0,88.54,39,8,13.18
379,Chaplynka,UA,2022-02-08 15:48:17,46.3651,33.5403,36.81,96,100,17.22
380,Goiania,BR,2022-02-08 15:48:13,-16.6786,-49.2539,81.23,69,75,5.75
381,Carutapera,BR,2022-02-08 15:48:17,-1.195,-46.02,84.79,68,48,5.88
382,Salinopolis,BR,2022-02-08 15:48:17,-0.6136,-47.3561,82.8,74,39,8.3
383,Cortez,US,2022-02-08 15:48:18,37.3489,-108.5859,37.42,67,0,3.44
384,Bereda,ES,2022-02-08 15:48:18,43.2686,-7.5406,64.15,47,3,2.86
385,Acapulco,MX,2022-02-08 15:48:18,16.8634,-99.8901,80.26,58,9,3.94
386,Mar Del Plata,AR,2022-02-08 15:48:19,-38.0023,-57.5575,69.82,78,20,13.0
387,Dagua,CO,2022-02-08 15:48:19,3.6569,-76.6886,72.1,89,99,3.67
388,Mitsamiouli,KM,2022-02-08 15:48:19,-11.3847,43.2844,75.49,94,75,5.75
389,Goderich,CA,2022-02-08 15:47:38,43.7501,-81.7165,28.9,74,99,9.22
390,Neiafu,TO,2022-02-08 15:48:20,-18.65,-173.9833,75.88,94,100,2.3
391,Marica,BR,2022-02-08 15:48:20,-22.9194,-42.8186,77.16,89,100,7.47
392,Puerto Ayacucho,VE,2022-02-08 15:48:21,5.6639,-67.6236,87.58,78,100,3.85
393,Kourou,GF,2022-02-08 15:48:21,5.1552,-52.6478,82.11,81,92,7.92
394,Nouadhibou,MR,2022-02-08 15:48:21,20.931,-17.0347,75.18,60,20,11.5
395,Barbastro,ES,2022-02-08 15:48:22,42.0356,0.1269,59.72,43,5,2.95
396,Nyurba,RU,2022-02-08 15:48:22,63.2842,118.3319,-14.31,98,100,4.5
397,Baryatino,RU,2022-02-08 15:48:22,54.3121,34.521,26.65,86,92,9.33
398,Bonavista,CA,2022-02-08 15:48:23,48.6499,-53.1147,33.12,77,100,15.35
399,Meulaboh,ID,2022-02-08 15:48:23,4.1363,96.1285,76.42,89,88,4.27
400,Isangel,VU,2022-02-08 15:48:23,-19.55,169.2667,80.22,90,100,21.25
401,Jieshou,CN,2022-02-08 15:48:24,33.2634,115.3611,36.18,77,100,4.9
402,Muromtsevo,RU,2022-02-08 15:48:24,56.3724,75.2418,1.04,99,45,6.78
403,Sadovoye,RU,2022-02-08 15:48:24,47.7764,44.5089,37.54,74,100,13.35
404,Baracoa,CU,2022-02-08 15:48:25,20.3467,-74.4958,80.85,72,30,5.5
405,Boueni,YT,2022-02-08 15:48:25,-12.9025,45.0761,78.78,79,100,14.18
406,Zhangjiakou,CN,2022-02-08 15:48:25,40.81,114.8794,20.84,30,0,1.95
407,Brownsville,US,2022-02-08 15:46:38,25.9018,-97.4975,58.01,63,0,5.75
408,Canutama,BR,2022-02-08 15:48:26,-6.5339,-64.3831,80.29,88,100,3.33
409,Grafton,US,2022-02-08 15:46:37,42.207,-71.6856,39.36,84,100,9.22
410,Along,IN,2022-02-08 15:48:26,28.1667,94.7667,50.5,87,70,2.13
411,Kidal,ML,2022-02-08 15:49:26,18.4411,1.4078,85.05,5,2,5.99
412,Kalmunai,LK,2022-02-08 15:49:27,7.4167,81.8167,77.65,69,99,9.33
413,Manono,CD,2022-02-08 15:49:27,-7.3,27.4167,78.85,82,14,3.44
414,Bone,DE,2022-02-08 15:49:27,51.9669,12.1396,51.3,77,100,17.07
415,Sychevka,RU,2022-02-08 15:49:28,55.8252,34.2736,27.64,90,100,10.2
416,Gallup,US,2022-02-08 15:49:28,35.5281,-108.7426,35.1,34,91,1.68
417,Nieves,PH,2022-02-08 15:49:28,15.3274,120.9485,73.98,80,7,5.01
418,Honiara,SB,2022-02-08 15:49:29,-9.4333,159.95,77.56,91,89,5.97
419,Bennettsville,US,2022-02-08 15:49:29,34.6174,-79.6848,42.62,91,100,5.91
420,Muramatsu,JP,2022-02-08 15:49:29,37.6833,139.1833,31.21,98,100,2.51
421,Merauke,ID,2022-02-08 15:49:30,-8.4667,140.3333,78.15,89,100,10.51
422,Abu Zabad,SD,2022-02-08 15:49:30,12.35,29.25,79.25,14,100,7.63
423,Port Hardy,CA,2022-02-08 15:46:56,50.6996,-127.4199,44.76,93,100,13.8
424,San Jose,US,2022-02-08 15:46:34,37.3394,-121.895,56.44,67,20,3.44
425,Diffa,NE,2022-02-08 15:49:30,13.3154,12.6113,82.74,8,3,12.46
426,Talara,PE,2022-02-08 15:49:31,-4.5772,-81.2719,79.56,57,75,12.66
427,Lavrentiya,RU,2022-02-08 15:49:31,65.5833,-171.0,-27.13,96,46,13.24
428,Jiwani,PK,2022-02-08 15:49:31,25.05,61.7417,71.38,56,0,13.11
429,Phayao,TH,2022-02-08 15:49:32,19.25,100.25,64.45,34,33,1.83
430,Nikolayevsk-Na-Amure,RU,2022-02-08 15:49:32,53.1406,140.73,6.19,97,100,6.2
431,Raga,SS,2022-02-08 15:49:32,8.4596,25.678,82.29,15,63,4.47
432,Serabu,SL,2022-02-08 15:49:32,7.7958,-12.0536,99.59,23,44,2.21
433,Kunya,NG,2022-02-08 15:49:33,12.2233,8.5325,87.96,19,68,10.36
434,Prince George,CA,2022-02-08 15:45:32,53.9166,-122.753,36.84,82,100,13.8
435,Cayenne,GF,2022-02-08 15:49:33,4.9333,-52.3333,82.09,83,75,19.57
436,Dalhousie,IN,2022-02-08 15:49:33,32.5333,75.9833,35.02,72,23,6.73
437,Wairoa,NZ,2022-02-08 15:49:34,-39.0333,177.3667,66.6,99,99,2.06
438,Mehran,IR,2022-02-08 15:49:34,33.1222,46.1646,58.48,43,4,10.89
439,Dergachi,RU,2022-02-08 15:49:34,51.2328,48.7659,17.17,97,48,8.55
440,Omaha,US,2022-02-08 15:47:10,41.2586,-95.9378,45.18,49,75,11.5
441,Portland,US,2022-02-08 15:45:06,45.5234,-122.6762,41.7,94,100,4.0
442,Great Yarmouth,GB,2022-02-08 15:49:35,52.6083,1.7305,55.65,81,98,17.54
443,Pevek,RU,2022-02-08 15:49:35,69.7008,170.3133,-31.9,100,41,5.03
444,Port-Cartier,CA,2022-02-08 15:49:35,50.0334,-66.8654,18.75,93,100,11.3
445,Dolores Hidalgo,MX,2022-02-08 15:49:36,21.1561,-100.9308,45.86,73,100,6.38
446,Bijie,CN,2022-02-08 15:49:36,27.3125,105.2942,30.54,95,99,4.32
447,Nelson Bay,AU,2022-02-08 15:49:36,-32.7167,152.15,64.99,94,1,4.68
448,Ketchikan,US,2022-02-08 15:49:37,55.3422,-131.6461,43.27,93,100,19.57
449,Beloha,MG,2022-02-08 15:49:37,-25.1667,45.05,78.98,72,74,16.42
450,Tonantins,BR,2022-02-08 15:49:37,-2.8731,-67.8022,77.18,94,100,4.05
451,Formosa,AR,2022-02-08 15:49:38,-26.1775,-58.1781,85.98,32,0,9.22
452,Maneadero,MX,2022-02-08 15:49:38,31.7167,-116.5667,63.03,24,1,5.46
453,Tokur,RU,2022-02-08 15:49:38,53.1333,132.9,-21.95,100,99,1.99
454,Plouzane,FR,2022-02-08 15:49:39,48.3833,-4.6167,53.92,87,100,10.36
455,Tambun,ID,2022-02-08 15:49:39,-6.2641,107.0712,80.49,85,99,1.63
456,Yulara,AU,2022-02-08 15:49:39,-25.2406,130.9889,76.84,78,75,5.75
457,Filingue,NE,2022-02-08 15:49:40,14.3521,3.3168,93.25,7,0,10.63
458,Ajdabiya,LY,2022-02-08 15:49:40,30.7554,20.2263,55.99,70,62,20.87
459,Kijang,KR,2022-02-08 15:50:40,35.2442,129.2139,35.33,41,85,6.93
460,Nizwa,OM,2022-02-08 15:50:40,22.9333,57.5333,67.46,29,0,2.84
461,Vawkavysk,BY,2022-02-08 15:50:41,53.1561,24.4513,35.29,96,100,15.14
462,Rocha,UY,2022-02-08 15:50:41,-34.4833,-54.3333,72.32,52,81,9.13
463,San Patricio,US,2022-02-08 15:50:41,28.017,-97.5169,55.87,39,0,4.65
464,Parabel,RU,2022-02-08 15:50:42,58.6978,81.4825,-14.84,100,16,4.74
465,Khammam,IN,2022-02-08 15:50:42,17.25,80.15,73.81,71,10,11.77
466,Avera,US,2022-02-08 15:50:42,33.194,-82.5271,47.37,57,100,7.47
467,New Glasgow,CA,2022-02-08 15:50:43,45.5834,-62.6486,41.38,100,100,14.47
468,Kysyl-Syr,RU,2022-02-08 15:50:43,63.8986,122.7617,-40.32,100,93,1.77
469,Vidisha,IN,2022-02-08 15:50:43,23.5333,77.8167,65.53,35,0,3.69
470,Jerome,US,2022-02-08 15:49:51,42.7241,-114.5186,21.69,86,100,4.61
471,Caravelas,BR,2022-02-08 15:50:43,-17.7125,-39.2481,85.21,59,100,8.61
472,Swan River,CA,2022-02-08 15:46:05,52.1058,-101.2676,37.29,75,95,12.66
473,Businga,CD,2022-02-08 15:50:44,3.3333,20.8833,94.55,17,51,3.0
474,Weligama,LK,2022-02-08 15:50:44,5.9667,80.4167,76.42,83,100,3.8
475,Dale,US,2022-02-08 15:50:45,38.1689,-86.99,41.34,81,11,10.89
476,Neuquen,AR,2022-02-08 15:46:48,-38.9516,-68.0591,85.89,21,0,9.22
477,Iskateley,RU,2022-02-08 15:50:45,67.6803,53.1512,10.9,94,100,13.4
478,Broken Hill,AU,2022-02-08 15:50:45,-31.95,141.4333,76.71,41,100,18.41
479,Kaabong,UG,2022-02-08 15:50:46,3.4836,34.1492,76.48,31,84,16.33
480,Yelan,RU,2022-02-08 15:50:46,50.949,43.7378,32.41,98,100,14.65
481,Teguldet,RU,2022-02-08 15:50:46,57.3064,88.1667,-5.57,99,59,5.06
482,Nipawin,CA,2022-02-08 15:50:46,53.3668,-104.0009,33.84,86,75,26.46
483,Beira,MZ,2022-02-08 15:47:19,-19.8436,34.8389,86.09,62,20,6.91
484,Kirakira,SB,2022-02-08 15:50:47,-10.4544,161.9205,79.02,88,100,8.97
485,Shingu,JP,2022-02-08 15:50:47,33.7333,135.9833,38.91,87,66,6.4
486,Cockburn Town,TC,2022-02-08 15:50:47,21.4612,-71.1419,77.43,79,5,21.68
487,Brae,GB,2022-02-08 15:50:48,60.3964,-1.353,42.71,76,99,31.68
488,Sirjan,IR,2022-02-08 15:50:48,29.452,55.6814,46.2,27,0,4.54
489,Maumere,ID,2022-02-08 15:50:48,-8.6199,122.2111,80.04,82,93,3.83
490,Manaira,BR,2022-02-08 15:50:49,-7.7061,-38.1544,88.07,33,56,3.15
491,Vila Do Maio,CV,2022-02-08 15:50:49,15.1333,-23.2167,83.19,78,0,10.25
492,Asau,RO,2022-02-08 15:50:50,46.4333,26.4,34.72,85,12,4.63
493,Roebourne,AU,2022-02-08 15:50:50,-20.7833,117.1333,84.06,73,54,3.85
494,Velyka Bahachka,UA,2022-02-08 15:50:50,49.7912,33.7226,32.0,92,100,12.48
495,Pitimbu,BR,2022-02-08 15:50:51,-7.4706,-34.8086,86.59,57,33,10.36
496,Teeli,RU,2022-02-08 15:50:51,51.0333,90.2333,3.06,89,100,2.53
497,Cove,BJ,2022-02-08 15:50:51,7.221,2.3402,99.73,17,6,4.03
498,Rongcheng,CN,2022-02-08 15:50:51,30.634,117.8517,38.46,94,100,2.35
499,Mandalgovi,MN,2022-02-08 15:50:52,45.7625,106.2708,7.23,54,10,7.76
500,Islamkot,PK,2022-02-08 15:50:52,24.6997,70.177,74.44,48,49,12.57
501,Biak,ID,2022-02-08 15:50:52,-0.9131,122.8766,75.24,82,100,2.73
502,Atar,MR,2022-02-08 15:50:53,20.5169,-13.0499,89.65,14,36,4.61
503,Opuwo,NA,2022-02-08 15:50:53,-18.0607,13.84,80.33,41,96,11.01
504,Filadelfia,US,2022-02-08 15:50:27,39.9523,-75.1638,44.1,67,75,17.27
505,Shahabad,IN,2022-02-08 15:51:53,27.65,79.95,61.02,68,0,2.17
506,Inta,RU,2022-02-08 15:51:54,66.0317,60.1659,-5.26,91,99,4.76
507,Buchanan,LR,2022-02-08 15:51:54,5.8808,-10.0467,89.56,63,88,13.27
508,Goure,NE,2022-02-08 15:51:54,13.9835,10.2704,85.01,5,77,13.8
509,Mongagua,BR,2022-02-08 15:51:55,-24.0931,-46.6208,85.93,73,55,7.83
510,Orlik,RU,2022-02-08 15:51:55,52.5178,99.825,-11.4,95,88,2.86
511,Vega De Alatorre,MX,2022-02-08 15:51:56,20.0333,-96.6333,58.89,77,99,16.93
512,Kanye,BW,2022-02-08 15:51:56,-24.9667,25.3327,78.96,36,90,6.8
513,Ballina,AU,2022-02-08 15:51:56,-28.8667,153.5667,62.78,94,40,0.0
514,Anadyr,RU,2022-02-08 15:51:57,64.75,177.4833,-30.5,75,20,15.66
515,Sisimiut,GL,2022-02-08 15:51:57,66.9395,-53.6735,-2.45,77,100,18.57
516,Tura,IN,2022-02-08 15:51:57,25.5198,90.2201,54.73,75,0,3.89
517,Charlottetown,CA,2022-02-08 15:51:57,46.2352,-63.1267,34.2,97,100,15.01
518,Teguise,ES,2022-02-08 15:51:58,29.0605,-13.564,68.22,64,32,8.05
519,Wahpeton,US,2022-02-08 15:51:58,46.2652,-96.6059,39.42,86,0,12.66
520,Bud,US,2022-02-08 15:51:58,39.447,-86.1758,32.49,68,26,9.69
521,Saint-Leu,RE,2022-02-08 15:51:59,-21.15,55.2833,79.66,84,35,5.75
522,Grindavik,IS,2022-02-08 15:51:59,63.8424,-22.4338,34.27,80,75,8.05
523,Luohe,CN,2022-02-08 15:51:59,33.5717,114.0353,34.92,75,98,4.94
524,Amga,RU,2022-02-08 15:52:00,60.8953,131.9608,-24.21,100,100,0.56
525,Gorontalo,ID,2022-02-08 15:52:00,0.5412,123.0595,72.77,95,100,3.38
526,Muros,ES,2022-02-08 15:52:00,42.7762,-9.0603,68.68,54,0,5.39
527,Namatanai,PG,2022-02-08 15:52:01,-3.6667,152.4333,79.74,84,100,5.35
528,Akdepe,TM,2022-02-08 15:52:01,42.0551,59.3788,37.49,67,9,7.56
529,Acajutla,SV,2022-02-08 15:52:02,13.5928,-89.8275,84.79,46,15,4.52
530,Naron,ES,2022-02-08 15:52:02,43.5167,-8.1528,64.67,61,4,3.13
531,Eagle Pass,US,2022-02-08 15:52:02,28.7091,-100.4995,57.24,31,0,4.09
532,Kutum,SD,2022-02-08 15:52:03,14.2,24.6667,71.08,9,8,7.0
533,Kailua,US,2022-02-08 15:52:03,21.4022,-157.7394,73.38,74,20,9.22
534,Abu Dhabi,AE,2022-02-08 15:48:06,24.4667,54.3667,68.11,61,0,12.66
535,Valkeala,FI,2022-02-08 15:52:03,60.9401,26.7979,27.3,100,100,8.05
536,Camana,PE,2022-02-08 15:52:04,-16.6228,-72.7111,74.98,71,34,11.36
537,Kahului,US,2022-02-08 15:52:04,20.8947,-156.47,73.85,75,0,5.99
538,Kuryk,KZ,2022-02-08 15:52:04,43.2,51.65,39.87,53,85,14.25
539,Nettuno,IT,2022-02-08 15:52:05,41.4826,12.679,58.24,44,0,9.24
540,Kavieng,PG,2022-02-08 15:52:05,-2.5744,150.7967,81.1,82,88,8.77
541,Stornoway,GB,2022-02-08 15:52:05,58.2093,-6.3865,41.94,85,40,18.41
542,Mehriz,IR,2022-02-08 15:52:06,31.5917,54.4318,50.5,23,0,0.74
543,Pyinmana,MM,2022-02-08 15:52:06,19.7333,96.2167,64.13,36,26,3.2
544,Galesong,ID,2022-02-08 15:52:06,-5.3166,119.3661,77.02,84,96,4.32
545,Los Llanos De Aridane,ES,2022-02-08 15:52:05,28.6585,-17.9182,78.55,69,0,8.01
546,Talcahuano,CL,2022-02-08 15:52:07,-36.7167,-73.1167,71.28,56,0,12.66
547,Mukhen,RU,2022-02-08 15:52:07,48.1,136.1,2.25,98,100,3.06
548,Westport,US,2022-02-08 15:52:07,41.1415,-73.3579,43.29,76,30,5.01
549,Prince Albert,CA,2022-02-08 15:53:08,53.2001,-105.7677,31.95,74,40,16.11
550,Kyren,RU,2022-02-08 15:53:08,51.6828,102.1408,7.2,98,100,1.39
551,Haines Junction,CA,2022-02-08 15:53:08,60.7522,-137.5108,22.95,93,99,2.3
552,Suhum,GH,2022-02-08 15:53:09,6.0409,-0.45,86.36,30,30,8.41
553,Mangrol,IN,2022-02-08 15:53:09,21.1167,70.1167,69.73,73,0,12.21
554,Hue,VN,2022-02-08 15:53:09,16.4667,107.6,73.51,94,75,3.44
555,Nagybajom,HU,2022-02-08 15:53:10,46.3923,17.5115,47.77,49,84,3.0
556,Vao,NC,2022-02-08 15:53:10,-22.6667,167.4833,80.55,87,98,22.88
557,Chenzhou,CN,2022-02-08 15:53:10,25.8,113.0333,36.63,98,100,3.56
558,Poya,NC,2022-02-08 15:53:11,-21.35,165.15,79.43,92,100,14.85
559,San Andres,CO,2022-02-08 15:53:11,12.5847,-81.7006,82.42,65,20,8.05
560,Dryden,CA,2022-02-08 15:53:12,49.7833,-92.7503,14.29,85,100,11.5
561,Jumla,NP,2022-02-08 15:53:12,29.2747,82.1838,34.12,94,89,3.22
562,Semey,KZ,2022-02-08 15:53:12,50.4111,80.2275,12.99,96,100,5.21
563,Lubawa,PL,2022-02-08 15:53:13,53.5043,19.7497,38.71,93,100,19.6
564,Vardo,NO,2022-02-08 15:53:13,70.3705,31.1107,28.6,81,57,18.39
565,Port Moresby,PG,2022-02-08 15:52:31,-9.4431,147.1797,77.31,85,100,4.09
566,Katsuura,JP,2022-02-08 15:53:14,35.1333,140.3,45.19,85,98,13.4
567,Unity,CA,2022-02-08 15:53:14,52.4501,-109.1682,29.25,89,64,13.6
568,Tullow,IE,2022-02-08 15:53:14,52.8003,-6.7369,54.79,88,100,9.46
569,Tezu,IN,2022-02-08 15:53:15,27.9167,96.1667,55.62,70,80,3.49
