City_ID,City,Lat,Lng,Max Temp,Humidity,Cloudiness,Wind Speed,Country,Date
0,Nakamura,32.9833,132.9333,39.34,53,95,2.64,JP,2022-02-07 16:16:49
1,Khatanga,71.9667,102.5,-18.92,97,100,10.49,RU,2022-02-07 16:13:37
2,Vaini,-21.2,-175.2,75.36,100,100,8.05,TO,2022-02-07 16:16:50
3,Mataura,-46.1927,168.8643,45.48,99,12,1.68,NZ,2022-02-07 16:16:50
4,Anloga,5.7947,0.8973,83.16,71,100,14.05,GH,2022-02-07 16:16:51
5,Kapaa,22.0752,-159.319,71.11,73,21,1.01,US,2022-02-07 16:16:21
6,Vanimo,-2.6741,141.3028,78.13,83,99,0.81,PG,2022-02-07 16:16:51
7,Kahului,20.8947,-156.47,72.84,81,5,7.0,US,2022-02-07 16:12:22
8,Busselton,-33.65,115.3333,59.09,75,93,6.55,AU,2022-02-07 16:16:51
9,Broome,42.2506,-75.833,36.66,66,0,8.05,US,2022-02-07 16:16:52
10,Camacha,33.0833,-16.3333,62.02,72,40,17.27,PT,2022-02-07 16:16:44
11,Tiznit,29.5833,-9.5,76.21,11,11,9.91,MA,2022-02-07 16:16:52
12,Puerto Ayora,-0.7393,-90.3518,76.55,85,15,5.01,EC,2022-02-07 16:14:46
13,Bambey,14.6955,-16.4493,99.37,5,1,4.45,SN,2022-02-07 16:16:53
14,Georgetown,5.4112,100.3354,80.53,88,20,0.0,MY,2022-02-07 16:14:07
15,Albany,42.6001,-73.9662,38.62,76,100,1.99,US,2022-02-07 16:16:53
16,Portland,45.5234,-122.6762,42.78,93,75,3.44,US,2022-02-07 16:13:57
17,Qaqortoq,60.7167,-46.0333,12.7,65,100,43.04,GL,2022-02-07 16:16:53
18,Marsh Harbour,26.5412,-77.0636,74.91,66,0,10.47,BS,2022-02-07 16:16:54
19,Lompoc,34.6391,-120.4579,70.09,65,0,4.61,US,2022-02-07 16:13:05
20,Prince Rupert,54.3161,-130.3201,41.09,93,100,12.66,CA,2022-02-07 16:13:56
21,Nioro,13.35,-15.75,101.66,6,19,5.99,GM,2022-02-07 16:16:54
22,Kruisfontein,-34.0033,24.7314,73.89,34,44,6.93,ZA,2022-02-07 16:16:54
23,Castro,-24.7911,-50.0119,78.89,51,19,3.65,BR,2022-02-07 16:16:55
24,Axim,4.8699,-2.2405,82.92,71,72,11.59,GH,2022-02-07 16:16:55
25,Geraldton,-28.7667,114.6,64.81,63,0,13.8,AU,2022-02-07 16:13:55
26,Ushuaia,-54.8,-68.3,69.46,49,0,11.5,AR,2022-02-07 16:16:55
27,Klaksvik,62.2266,-6.589,40.12,79,88,34.56,FO,2022-02-07 16:16:56
28,Gat,31.61,34.7642,60.4,100,0,2.66,IL,2022-02-07 16:16:56
29,Rikitea,-23.1203,-134.9692,78.28,75,12,13.4,PF,2022-02-07 16:13:22
30,Port Hardy,50.6996,-127.4199,46.76,93,100,6.91,CA,2022-02-07 16:15:27
31,Vila Franca Do Campo,37.7167,-25.4333,63.01,69,67,10.04,PT,2022-02-07 16:16:56
32,Adrar,20.5022,-10.0711,83.62,6,92,11.14,MR,2022-02-07 16:16:57
33,Dikson,73.5069,80.5464,-4.88,94,100,26.73,RU,2022-02-07 16:16:57
34,Yellowknife,62.456,-114.3525,-3.59,91,100,8.05,CA,2022-02-07 16:13:46
35,New Norfolk,-42.7826,147.0587,60.3,98,2,1.05,AU,2022-02-07 16:16:57
36,Jamestown,42.097,-79.2353,35.19,39,0,8.05,US,2022-02-07 16:13:03
37,Mocuba,-16.8392,36.9856,75.24,92,42,3.4,MZ,2022-02-07 16:16:58
38,Esperance,-33.8667,121.9,63.39,68,11,23.55,AU,2022-02-07 16:16:58
39,Sibolga,1.7427,98.7792,77.88,83,99,2.51,ID,2022-02-07 16:16:58
40,Tuatapere,-46.1333,167.6833,45.82,90,3,4.32,NZ,2022-02-07 16:15:15
41,Hermanus,-34.4187,19.2345,77.9,80,54,7.52,ZA,2022-02-07 16:16:59
42,Cape Town,-33.9258,18.4232,78.12,62,0,17.27,ZA,2022-02-07 16:16:59
43,San Rafael,-34.6177,-68.3301,80.13,24,0,11.14,AR,2022-02-07 16:16:59
44,Centralia,46.7162,-122.9543,47.66,97,100,5.75,US,2022-02-07 16:12:10
45,Punta Arenas,-53.15,-70.9167,60.82,93,100,10.36,CL,2022-02-07 16:15:12
46,Chokurdakh,70.6333,147.9167,-44.57,100,96,5.19,RU,2022-02-07 16:13:42
47,Yantal,56.8471,105.2542,10.63,97,100,3.71,RU,2022-02-07 16:18:00
48,Arraial Do Cabo,-22.9661,-42.0278,84.06,70,75,5.75,BR,2022-02-07 16:13:53
49,Camopi,3.1655,-52.3158,81.82,79,81,4.23,GF,2022-02-07 16:18:00
50,Flinders,-34.5833,150.8552,64.06,82,46,7.94,AU,2022-02-07 16:16:41
51,Lakes Entrance,-37.8811,147.981,54.16,89,49,7.67,AU,2022-02-07 16:18:01
52,Severo-Kurilsk,50.6789,156.125,28.45,82,76,7.31,RU,2022-02-07 16:18:01
53,Mar Del Plata,-38.0023,-57.5575,66.22,72,100,18.41,AR,2022-02-07 16:18:01
54,Imbituba,-28.24,-48.6703,78.69,58,0,11.92,BR,2022-02-07 16:18:02
55,Bredasdorp,-34.5322,20.0403,76.28,59,95,13.44,ZA,2022-02-07 16:18:02
56,East London,-33.0153,27.9116,79.74,78,0,10.36,ZA,2022-02-07 16:18:03
57,Lyngseidet,69.5763,20.2189,28.49,93,97,6.46,NO,2022-02-07 16:18:03
58,Porbandar,21.6422,69.6093,69.98,66,1,9.82,IN,2022-02-07 16:18:03
59,Skibotn,69.3913,20.2679,28.49,95,97,4.81,NO,2022-02-07 16:18:04
60,Douentza,14.9951,-2.9517,89.51,5,1,6.35,ML,2022-02-07 16:18:04
61,Mandurah,-32.55,115.7,64.9,70,17,10.8,AU,2022-02-07 16:18:04
62,Norman Wells,65.282,-126.8329,-18.36,63,75,14.97,CA,2022-02-07 16:18:05
63,Luebo,-5.35,21.4167,75.11,84,100,4.18,CD,2022-02-07 16:18:05
64,Meridian,43.6121,-116.3915,27.72,82,0,6.91,US,2022-02-07 16:16:55
65,Tasiilaq,65.6145,-37.6368,24.96,56,100,50.76,GL,2022-02-07 16:13:12
66,Augusto Correa,-1.0217,-46.635,84.94,69,84,5.35,BR,2022-02-07 16:18:05
67,Magadan,59.5667,150.8,-5.48,62,42,10.69,RU,2022-02-07 16:18:06
68,Bluff,-46.6,168.3333,45.81,86,12,5.99,NZ,2022-02-07 16:18:06
69,Grindavik,63.8424,-22.4338,30.67,80,75,32.21,IS,2022-02-07 16:18:07
70,Manama,26.2154,50.5832,62.78,52,0,18.41,BH,2022-02-07 16:13:40
71,Ilorin,8.5,4.55,95.36,17,47,6.91,NG,2022-02-07 16:18:07
72,Bosobolo,4.1833,19.9,93.38,15,64,3.96,CD,2022-02-07 16:18:07
73,Ilulissat,69.2167,-51.1,10.42,72,75,18.41,GL,2022-02-07 16:18:08
74,Pingzhuang,42.0372,119.2889,18.97,48,32,2.73,CN,2022-02-07 16:18:08
75,Port Elizabeth,-33.918,25.5701,77.09,63,22,6.22,ZA,2022-02-07 16:14:05
76,Fairbanks,64.8378,-147.7164,-2.24,75,100,9.22,US,2022-02-07 16:16:19
77,Leningradskiy,69.3833,178.4167,-29.78,99,6,5.61,RU,2022-02-07 16:18:08
78,Akdepe,42.0551,59.3788,35.69,54,16,8.63,TM,2022-02-07 16:18:09
79,East Liverpool,40.6187,-80.5773,38.52,81,100,1.99,US,2022-02-07 16:18:09
80,Upernavik,72.7868,-56.1549,-7.02,94,100,10.04,GL,2022-02-07 16:14:39
81,Atuona,-9.8,-139.0333,78.48,76,30,18.45,PF,2022-02-07 16:18:09
82,Acapulco,16.8634,-99.8901,78.62,65,75,4.61,MX,2022-02-07 16:15:08
83,Beyneu,45.3167,55.2,32.9,95,92,3.09,KZ,2022-02-07 16:18:10
84,Luderitz,-26.6481,15.1594,76.55,63,5,4.27,NA,2022-02-07 16:16:40
85,Port Alfred,-33.5906,26.891,78.46,75,0,11.14,ZA,2022-02-07 16:18:10
86,Dudinka,69.4058,86.1778,-31.94,100,58,4.83,RU,2022-02-07 16:18:10
87,Raudeberg,61.9875,5.1352,40.19,89,100,7.0,NO,2022-02-07 16:18:11
88,Sur,22.5667,59.5289,69.53,61,0,5.75,OM,2022-02-07 16:18:11
89,Majene,-3.5403,118.9707,77.18,85,100,4.68,ID,2022-02-07 16:18:11
90,Avarua,-21.2078,-159.775,75.25,88,90,8.05,CK,2022-02-07 16:18:12
91,Tuktoyaktuk,69.4541,-133.0374,-32.8,68,40,12.66,CA,2022-02-07 16:18:12
92,Nikolskoye,59.7035,30.7861,34.88,98,100,6.89,RU,2022-02-07 16:19:12
93,Yinchuan,38.4681,106.2731,23.22,72,78,1.59,CN,2022-02-07 16:19:13
94,Ugoofaaru,5.6667,73.0,80.73,74,22,13.02,MV,2022-02-07 16:14:52
95,Hobart,-42.8794,147.3294,60.66,72,40,6.91,AU,2022-02-07 16:19:13
96,Totness,5.8833,-56.3167,81.82,74,85,9.69,SR,2022-02-07 16:19:13
97,Tokmak,47.2514,35.7058,41.02,86,100,15.3,UA,2022-02-07 16:19:14
98,Pemagatsel,27.0319,91.4266,37.47,91,35,3.2,BT,2022-02-07 16:19:14
99,Leh,34.1667,77.5833,3.27,91,79,2.13,IN,2022-02-07 16:17:14
100,Taitung,22.7583,121.1444,69.49,89,99,5.73,TW,2022-02-07 16:19:14
101,Poum,-20.2333,164.0167,81.0,87,100,27.63,NC,2022-02-07 16:19:15
102,Sao Jose Da Coroa Grande,-8.8978,-35.1478,86.11,55,28,10.04,BR,2022-02-07 16:19:15
103,Bridgwater,51.1284,-3.0036,54.45,91,94,4.0,GB,2022-02-07 16:19:15
104,Namatanai,-3.6667,152.4333,79.97,83,100,3.51,PG,2022-02-07 16:19:16
105,Taoudenni,22.6783,-3.9836,82.72,7,0,10.65,ML,2022-02-07 16:19:16
106,Berlevag,70.8578,29.0864,23.0,79,0,24.16,NO,2022-02-07 16:19:16
107,Rudbar,30.15,62.6,59.25,20,0,11.36,AF,2022-02-07 16:19:17
108,Mahebourg,-20.4081,57.7,80.26,83,75,6.91,MU,2022-02-07 16:19:17
109,Canon City,38.441,-105.2424,43.07,34,0,23.02,US,2022-02-07 16:19:17
110,Port-Gentil,-0.7193,8.7815,81.12,76,75,7.7,GA,2022-02-07 16:19:18
111,Ust-Tsilma,65.441,52.1498,13.8,93,100,7.52,RU,2022-02-07 16:19:18
112,Palmer,42.1584,-72.3287,36.14,81,100,3.09,US,2022-02-07 16:19:18
113,Barrow,71.2906,-156.7887,-27.38,68,20,8.05,US,2022-02-07 16:19:19
114,Waitati,-45.75,170.5667,55.8,73,0,2.68,NZ,2022-02-07 16:19:19
115,Torbay,47.6666,-52.7314,21.88,68,40,11.5,CA,2022-02-07 16:19:19
116,Saint-Georges,12.0564,-61.7485,87.48,66,75,23.02,GD,2022-02-07 16:19:19
117,Aasiaat,68.7098,-52.8699,4.95,87,100,22.91,GL,2022-02-07 16:19:20
118,Menongue,-14.6585,17.691,66.25,92,100,2.46,AO,2022-02-07 16:19:20
119,Atasu,48.6814,71.6433,19.74,89,100,11.72,KZ,2022-02-07 16:19:20
120,Dergachi,51.2328,48.7659,5.07,100,85,3.69,RU,2022-02-07 16:19:21
121,Thompson,55.7435,-97.8558,6.96,85,100,8.05,CA,2022-02-07 16:15:27
122,Veraval,20.9,70.3667,69.26,68,2,10.83,IN,2022-02-07 16:19:21
123,Hilo,19.7297,-155.09,66.79,88,19,7.0,US,2022-02-07 16:19:21
124,Garden Grove,33.7739,-117.9415,69.67,35,0,0.0,US,2022-02-07 16:19:22
125,Ponta Do Sol,32.6667,-17.1,67.12,60,7,9.33,PT,2022-02-07 16:19:22
126,Hualmay,-11.0964,-77.6139,75.09,68,69,9.01,PE,2022-02-07 16:15:48
127,Cabedelo,-6.9811,-34.8339,88.47,62,94,9.89,BR,2022-02-07 16:19:22
128,Erdaojiang,41.7764,126.0319,-0.04,97,31,2.37,CN,2022-02-07 16:19:23
129,Iqaluit,63.7506,-68.5145,-16.31,75,100,6.91,CA,2022-02-07 16:19:23
130,Coari,-4.085,-63.1414,77.45,94,100,4.76,BR,2022-02-07 16:19:24
131,Safaga,26.7292,33.9365,66.96,55,0,13.71,EG,2022-02-07 16:19:24
132,Cabo San Lucas,22.8909,-109.9124,68.61,67,0,0.0,MX,2022-02-07 16:18:05
133,Chapada Dos Guimaraes,-15.4606,-55.7497,76.66,76,90,2.06,BR,2022-02-07 16:19:24
134,Nanortalik,60.1432,-45.2371,13.03,72,100,48.21,GL,2022-02-07 16:19:25
135,Provideniya,64.3833,-173.3,-14.98,85,2,10.92,RU,2022-02-07 16:19:25
136,Sao Joao Da Barra,-21.6403,-41.0511,87.89,79,3,14.94,BR,2022-02-07 16:19:25
137,Bubaque,11.2833,-15.8333,78.48,62,43,11.61,GW,2022-02-07 16:19:26
138,Bethel,41.3712,-73.414,35.89,87,100,4.61,US,2022-02-07 16:19:26
139,Lavrentiya,65.5833,-171.0,-26.55,91,11,11.23,RU,2022-02-07 16:14:51
140,Coquimbo,-29.9533,-71.3436,65.93,72,100,8.05,CL,2022-02-07 16:16:26
141,Marfino,55.7028,37.3822,32.16,90,75,11.18,RU,2022-02-07 16:20:26
142,Eureka,40.8021,-124.1637,42.93,96,1,1.99,US,2022-02-07 16:20:27
143,Maragogi,-9.0122,-35.2225,86.31,55,25,10.94,BR,2022-02-07 16:20:27
144,Morgan City,29.6994,-91.2068,48.2,57,75,5.75,US,2022-02-07 16:20:27
145,Talnakh,69.4865,88.3972,-23.58,97,54,7.02,RU,2022-02-07 16:15:37
146,Uarini,-2.99,-65.1083,85.95,66,100,3.8,BR,2022-02-07 16:20:28
147,Mnisek Pod Brdy,49.8665,14.2618,37.81,71,44,21.0,CZ,2022-02-07 16:20:28
148,Le Port,-20.9373,55.2919,78.8,85,100,8.43,RE,2022-02-07 16:20:29
149,Roros,62.5747,11.3842,24.64,80,20,4.61,NO,2022-02-07 16:20:29
150,Kodiak,57.79,-152.4072,24.31,74,0,3.44,US,2022-02-07 16:20:29
151,Baruun-Urt,46.6806,113.2792,3.18,90,13,7.31,MN,2022-02-07 16:20:30
152,Maple Creek,49.9168,-109.4848,48.61,33,8,13.8,CA,2022-02-07 16:20:30
153,Carnarvon,-24.8667,113.6333,74.41,61,0,26.96,AU,2022-02-07 16:20:30
154,Anadyr,64.75,177.4833,-23.3,69,0,8.95,RU,2022-02-07 16:20:30
155,Cikupa,-6.2364,106.5083,81.91,87,99,6.35,ID,2022-02-07 16:20:31
156,Tezu,27.9167,96.1667,53.51,71,9,4.16,IN,2022-02-07 16:20:31
157,Airai,-8.9266,125.4092,61.81,93,93,1.54,TL,2022-02-07 16:20:31
158,Maldonado,-34.6667,-54.9167,70.99,69,84,15.28,UY,2022-02-07 16:20:32
159,Akureyri,65.6835,-18.0878,31.93,64,75,10.36,IS,2022-02-07 16:20:32
160,Hithadhoo,-0.6,73.0833,82.6,70,95,15.5,MV,2022-02-07 16:20:32
161,Preobrazheniye,42.9019,133.9064,14.81,64,1,8.48,RU,2022-02-07 16:20:33
162,Rabat,33.9911,-6.8401,71.01,69,0,6.91,MA,2022-02-07 16:20:33
163,Roald,62.5833,6.1333,42.33,70,75,9.22,NO,2022-02-07 16:20:33
164,Te Anau,-45.4167,167.7167,44.26,91,1,1.25,NZ,2022-02-07 16:15:57
165,Bichura,50.5881,107.6022,5.02,87,71,3.15,RU,2022-02-07 16:20:34
166,Ancud,-41.8697,-73.8203,75.22,64,62,6.53,CL,2022-02-07 16:20:34
167,Grootfontein,-19.5667,18.1167,81.97,39,84,9.22,NA,2022-02-07 16:20:34
168,Saskylakh,71.9167,114.0833,-12.06,95,91,10.29,RU,2022-02-07 16:20:35
169,Touros,-5.1989,-35.4608,88.7,53,53,13.78,BR,2022-02-07 16:20:35
170,Fortuna,40.5982,-124.1573,42.66,97,100,0.0,US,2022-02-07 16:20:35
171,Rocha,-34.4833,-54.3333,71.2,62,76,16.35,UY,2022-02-07 16:20:36
172,Hambantota,6.1241,81.1185,78.37,77,100,3.4,LK,2022-02-07 16:20:36
173,Ahipara,-35.1667,173.1667,72.54,98,100,5.68,NZ,2022-02-07 16:20:37
174,La Peca,-5.6111,-78.435,76.06,73,100,3.2,PE,2022-02-07 16:20:37
175,Bambous Virieux,-20.3428,57.7575,80.22,83,75,6.91,MU,2022-02-07 16:20:37
176,Nyurba,63.2842,118.3319,-11.29,97,100,6.4,RU,2022-02-07 16:20:37
177,Isangel,-19.55,169.2667,78.84,90,100,26.35,VU,2022-02-07 16:20:38
178,Altagracia De Orituco,9.8601,-66.3814,89.98,42,68,5.35,VE,2022-02-07 16:20:38
179,Mwinilunga,-11.7358,24.4293,65.89,94,100,4.32,ZM,2022-02-07 16:20:39
180,Sirohi,24.8833,72.8667,63.82,54,0,3.58,IN,2022-02-07 16:20:39
181,Caravelas,-17.7125,-39.2481,86.2,60,75,9.48,BR,2022-02-07 16:20:39
182,Sunndalsora,62.6754,8.5515,36.25,90,98,9.46,NO,2022-02-07 16:20:39
183,Cayenne,4.9333,-52.3333,86.04,80,75,12.66,GF,2022-02-07 16:20:40
184,Ostrovnoy,68.0531,39.5131,15.53,87,99,19.51,RU,2022-02-07 16:21:09
185,Talara,-4.5772,-81.2719,84.96,51,0,11.5,PE,2022-02-07 16:21:40
186,Lexington Park,38.2668,-76.4538,41.74,87,100,9.22,US,2022-02-07 16:21:40
187,Khasan,42.4308,130.6434,22.19,58,27,8.3,RU,2022-02-07 16:21:41
188,Hobyo,5.3505,48.5268,77.43,71,70,19.42,SO,2022-02-07 16:21:41
189,Luanda,-8.8368,13.2343,82.4,65,0,11.5,AO,2022-02-07 16:20:06
190,Plettenberg Bay,-34.0527,23.3716,73.04,56,55,2.01,ZA,2022-02-07 16:21:42
191,Develi,38.3906,35.4922,31.35,78,83,4.92,TR,2022-02-07 16:21:42
192,Olafsvik,64.8945,-23.7142,31.14,85,94,32.41,IS,2022-02-07 16:21:42
193,Bonavista,48.6499,-53.1147,20.12,47,26,12.35,CA,2022-02-07 16:21:43
194,Meulaboh,4.1363,96.1285,76.5,84,100,4.47,ID,2022-02-07 16:21:43
195,College,64.8569,-147.8028,-2.25,74,100,9.22,US,2022-02-07 16:21:43
196,Ribeira Grande,38.5167,-28.7,63.0,72,40,16.11,PT,2022-02-07 16:21:44
197,Neyshabur,36.2133,58.7958,40.32,57,100,3.51,IR,2022-02-07 16:21:44
198,Souillac,-20.5167,57.5167,80.37,83,75,6.91,MU,2022-02-07 16:21:44
199,Srednekolymsk,67.45,153.6833,-40.22,100,55,4.52,RU,2022-02-07 16:21:44
200,Impfondo,1.6381,18.0667,97.54,14,16,4.27,CG,2022-02-07 16:21:45
201,Rostovka,55.3842,71.8891,-0.27,95,8,6.82,RU,2022-02-07 16:21:45
202,San Juan,-31.5375,-68.5364,82.08,30,0,4.5,AR,2022-02-07 16:17:50
203,Codrington,-38.2667,141.9667,62.92,65,0,11.27,AU,2022-02-07 16:21:45
204,Pevek,69.7008,170.3133,-26.73,98,24,1.99,RU,2022-02-07 16:21:46
205,Vondrozo,-22.8167,47.2833,70.99,97,100,3.0,MG,2022-02-07 16:21:46
206,Tekeli,44.83,78.8239,19.33,83,90,5.82,KZ,2022-02-07 16:21:46
207,Alberton,46.8168,-64.0654,24.93,86,100,15.99,CA,2022-02-07 16:21:47
208,Kabompo,-13.5927,24.2008,66.33,96,100,2.28,ZM,2022-02-07 16:21:47
209,Davila,18.4726,120.5763,77.54,77,86,3.69,PH,2022-02-07 16:21:47
210,Saint George,37.1041,-113.5841,47.35,41,0,1.99,US,2022-02-07 16:21:48
211,La Ronge,55.1001,-105.2842,28.65,74,40,8.05,CA,2022-02-07 16:21:48
212,Chuy,-33.6971,-53.4616,73.45,59,75,15.57,UY,2022-02-07 16:21:48
213,Weiz,47.2167,15.6167,37.26,54,43,14.38,AT,2022-02-07 16:21:49
214,Baltasi,56.3462,50.2062,5.41,98,98,4.25,RU,2022-02-07 16:21:49
215,Henties Bay,-22.116,14.2845,72.86,82,99,11.79,NA,2022-02-07 16:21:49
216,Makakilo City,21.3469,-158.0858,71.92,68,20,17.27,US,2022-02-07 16:21:49
217,Svetlaya,46.5389,138.3297,8.37,74,15,9.24,RU,2022-02-07 16:21:50
218,Beringovskiy,63.05,179.3167,-19.8,96,27,10.96,RU,2022-02-07 16:21:50
219,Dicabisagan,17.0818,122.4157,74.93,90,100,5.88,PH,2022-02-07 16:21:50
220,Boa Vista,2.8197,-60.6733,89.58,48,75,12.66,BR,2022-02-07 16:21:51
221,Egvekinot,66.3167,-179.1667,-20.56,84,7,12.62,RU,2022-02-07 16:21:51
222,Prainha,-1.8,-53.48,84.76,64,98,3.62,BR,2022-02-07 16:21:51
223,Hamilton,39.1834,-84.5333,39.04,71,0,6.91,US,2022-02-07 16:21:52
224,Aracataca,10.5918,-74.1898,86.63,39,16,1.03,CO,2022-02-07 16:21:52
225,Chipinge,-20.1883,32.6236,68.31,75,42,3.76,ZW,2022-02-07 16:21:52
226,Tautira,-17.7333,-149.15,77.02,77,100,19.66,PF,2022-02-07 16:21:52
227,Nantucket,41.2835,-70.0995,48.31,79,100,13.8,US,2022-02-07 16:21:53
228,Puri,19.8,85.85,68.52,65,13,9.71,IN,2022-02-07 16:21:53
229,Sorland,67.667,12.6934,32.07,59,100,13.38,NO,2022-02-07 16:21:53
230,Butaritari,3.0707,172.7902,81.75,76,94,16.11,KI,2022-02-07 16:21:54
231,Lata,40.1629,-8.3327,71.35,39,2,6.04,PT,2022-02-07 16:22:54
232,Biskamzha,53.4497,89.5272,6.69,100,97,2.33,RU,2022-02-07 16:22:54
233,Sept-Iles,50.2001,-66.3821,17.06,74,100,5.75,CA,2022-02-07 16:22:55
234,Joshimath,30.5667,79.5667,37.51,72,54,5.77,IN,2022-02-07 16:22:55
235,Polunochnoye,60.8697,60.4153,-1.34,99,100,3.69,RU,2022-02-07 16:22:55
236,Pasco,28.292,-82.4165,58.93,64,33,5.88,US,2022-02-07 16:22:56
237,Rapar,23.5667,70.6333,70.61,56,0,6.06,IN,2022-02-07 16:22:56
238,Manavalakurichi,8.1333,77.3,82.49,77,12,3.06,IN,2022-02-07 16:22:56
239,Erzurum,40.0,41.5,17.28,88,7,3.56,TR,2022-02-07 16:22:57
240,Storforshei,66.4043,14.5233,24.58,92,100,4.61,NO,2022-02-07 16:22:57
241,Saint-Pierre,-21.3393,55.4781,78.48,83,100,6.91,RE,2022-02-07 16:22:57
242,San Pedro De Ycuamandiyu,-24.0917,-57.0764,84.76,25,0,7.45,PY,2022-02-07 16:22:58
243,Krasnoselkup,65.7,82.4667,-27.72,100,24,2.01,RU,2022-02-07 16:22:58
244,High Prairie,55.4334,-116.4858,40.3,69,100,19.33,CA,2022-02-07 16:22:58
245,Placido De Castro,-10.3353,-67.1856,78.24,80,100,3.53,BR,2022-02-07 16:19:57
246,Kununurra,-15.7667,128.7333,78.78,94,100,3.44,AU,2022-02-07 16:22:59
247,Rapid Valley,44.0625,-103.1463,53.64,30,0,13.0,US,2022-02-07 16:22:59
248,Vestmanna,62.1564,-7.1664,38.32,81,75,23.02,FO,2022-02-07 16:22:59
249,Tiksi,71.6872,128.8694,-23.91,99,95,8.01,RU,2022-02-07 16:23:00
250,Saldanha,-33.0117,17.9442,67.55,85,60,15.32,ZA,2022-02-07 16:23:00
251,Lagoa,39.05,-27.9833,59.36,67,0,11.39,PT,2022-02-07 16:23:00
252,Nemuro,43.3236,145.575,21.6,79,29,7.43,JP,2022-02-07 16:23:01
253,Iquique,-20.2208,-70.1431,71.64,63,100,9.24,CL,2022-02-07 16:23:01
254,Russell,32.3502,-85.1999,50.92,69,99,3.6,US,2022-02-07 16:23:01
255,Ondjiva,-17.0667,15.7333,73.44,78,75,5.75,AO,2022-02-07 16:23:02
256,Gizo,-8.103,156.8419,82.62,80,100,10.87,SB,2022-02-07 16:23:02
257,Santiago Del Estero,-27.7951,-64.2615,85.55,29,0,8.05,AR,2022-02-07 16:23:02
258,Niceville,30.5169,-86.4822,49.95,88,100,6.91,US,2022-02-07 16:23:03
259,Padang,-0.9492,100.3543,78.13,79,91,4.29,ID,2022-02-07 16:23:03
260,Sitka,57.0531,-135.33,40.89,81,100,9.22,US,2022-02-07 16:23:03
261,Guatire,10.4762,-66.5427,84.7,69,52,5.03,VE,2022-02-07 16:23:03
262,Andenes,69.3143,16.1194,33.78,75,75,5.75,NO,2022-02-07 16:23:04
263,Naze,28.3667,129.4833,59.2,77,100,19.66,JP,2022-02-07 16:23:04
264,Santa Fe,-31.6333,-60.7,80.01,45,0,5.01,AR,2022-02-07 16:23:04
265,Saint-Philippe,-21.3585,55.7679,78.39,87,100,12.82,RE,2022-02-07 16:23:05
266,Nouadhibou,20.931,-17.0347,71.58,64,52,11.5,MR,2022-02-07 16:23:05
267,Concepcion Del Oro,24.6333,-101.4167,49.08,51,0,6.31,MX,2022-02-07 16:23:05
268,Effingham,32.3669,-81.3332,44.83,93,100,7.4,US,2022-02-07 16:23:06
269,Chimoio,-19.1164,33.4833,76.86,73,40,10.36,MZ,2022-02-07 16:23:06
270,Rudnya,54.947,31.0934,33.93,89,100,11.01,RU,2022-02-07 16:23:06
271,Vrangel,42.7297,133.0839,17.69,63,0,9.78,RU,2022-02-07 16:23:07
272,Longyearbyen,78.2186,15.6401,17.44,73,75,6.91,SJ,2022-02-07 16:21:41
273,Mehamn,71.0357,27.8492,22.95,74,0,20.71,NO,2022-02-07 16:24:07
274,Sarangani,5.4033,125.4636,81.32,78,39,24.67,PH,2022-02-07 16:24:07
275,Rio Gallegos,-51.6226,-69.2181,80.65,21,0,19.57,AR,2022-02-07 16:24:08
276,Paita,-5.0892,-81.1144,84.76,65,100,7.87,PE,2022-02-07 16:22:00
277,Aksehir,38.3575,31.4164,34.07,90,98,6.71,TR,2022-02-07 16:24:08
278,Vardo,70.3705,31.1107,23.2,86,75,6.91,NO,2022-02-07 16:24:08
279,Chimbote,-9.0853,-78.5783,75.09,66,77,7.99,PE,2022-02-07 16:21:59
280,Victoria,22.2855,114.1577,65.25,84,93,8.01,HK,2022-02-07 16:24:09
281,Qaanaaq,77.484,-69.3632,0.16,67,100,6.78,GL,2022-02-07 16:24:09
282,Mahanoro,-19.9,48.8,80.17,84,100,9.6,MG,2022-02-07 16:24:09
283,Lebu,-37.6167,-73.65,66.15,72,3,13.94,CL,2022-02-07 16:24:10
284,Bandarbeyla,9.4942,50.8122,76.03,69,57,17.81,SO,2022-02-07 16:24:10
285,Smithers,54.7804,-127.1743,35.92,87,75,17.27,CA,2022-02-07 16:23:13
286,Kirakira,-10.4544,161.9205,81.28,86,100,12.55,SB,2022-02-07 16:24:10
287,Bhum,18.4667,75.6667,77.47,30,24,2.55,IN,2022-02-07 16:24:11
288,Salalah,17.0151,54.0924,80.69,16,0,12.66,OM,2022-02-07 16:21:26
289,Atambua,-9.1061,124.8925,75.99,83,100,0.13,ID,2022-02-07 16:24:11
290,Turbat,26.0023,63.044,70.18,63,0,10.33,PK,2022-02-07 16:24:11
291,Tehachapi,35.1322,-118.449,52.59,24,0,8.99,US,2022-02-07 16:24:12
292,Cullera,39.1667,-0.25,64.53,74,0,7.0,ES,2022-02-07 16:24:12
293,Kaitangata,-46.2817,169.8464,51.93,84,24,2.55,NZ,2022-02-07 16:24:12
294,Kidal,18.4411,1.4078,82.62,6,0,9.33,ML,2022-02-07 16:24:13
295,Katsuura,35.1333,140.3,42.19,48,50,4.65,JP,2022-02-07 16:24:13
296,Fort-Shevchenko,44.5086,50.263,33.93,77,75,6.26,KZ,2022-02-07 16:24:13
297,Puerto Escondido,15.85,-97.0667,83.23,78,0,5.75,MX,2022-02-07 16:24:13
298,Dickinson,29.4608,-95.0513,57.36,52,0,9.22,US,2022-02-07 16:24:14
299,Rio Tercero,-32.173,-64.1141,78.46,25,0,8.16,AR,2022-02-07 16:24:14
300,San Patricio,28.017,-97.5169,59.09,67,76,13.22,US,2022-02-07 16:24:14
301,Kirkuk,35.4681,44.3922,49.28,48,0,3.74,IQ,2022-02-07 16:24:15
302,Saint Anthony,45.0205,-93.218,10.29,75,100,6.91,US,2022-02-07 16:24:15
303,Hede,33.7681,120.2517,33.58,78,80,3.78,CN,2022-02-07 16:24:15
304,Bac Lieu,9.285,105.7244,78.62,83,72,12.39,VN,2022-02-07 16:21:04
305,Afua,-0.1567,-50.3867,80.71,84,98,4.0,BR,2022-02-07 16:24:16
306,Pacific Grove,36.6177,-121.9166,56.28,74,0,5.75,US,2022-02-07 16:21:23
307,Siaya,0.0612,34.2882,71.78,63,94,9.04,KE,2022-02-07 16:24:16
308,Kieta,-6.2167,155.6333,80.74,85,100,7.87,PG,2022-02-07 16:24:16
309,Aksu,41.1231,80.2644,25.65,54,35,4.72,CN,2022-02-07 16:24:17
310,Port Moresby,-9.4431,147.1797,76.42,88,20,3.44,PG,2022-02-07 16:24:17
311,Seoul,37.5683,126.9778,27.84,74,40,2.3,KR,2022-02-07 16:20:06
312,Latung,5.5,120.8833,82.09,73,98,4.83,PH,2022-02-07 16:24:18
313,Ngaoundere,7.3167,13.5833,84.92,13,26,8.97,CM,2022-02-07 16:24:18
314,Belmonte,-15.8631,-38.8828,84.7,62,21,10.27,BR,2022-02-07 16:21:14
315,Sao Filipe,14.8961,-24.4956,74.21,71,1,6.91,CV,2022-02-07 16:24:19
316,Abalak,58.1286,68.5944,9.43,92,45,8.93,RU,2022-02-07 16:24:19
317,Ende,-8.8432,121.6623,78.71,86,62,4.16,ID,2022-02-07 16:24:19
318,Patacamaya,-17.2333,-67.9167,53.44,59,88,7.83,BO,2022-02-07 16:25:20
319,Charlottetown,46.2352,-63.1267,26.89,62,100,17.0,CA,2022-02-07 16:21:16
320,Oyama,36.3,139.8,41.59,39,60,3.38,JP,2022-02-07 16:25:20
321,Ojinaga,29.5667,-104.4167,47.57,53,0,6.91,MX,2022-02-07 16:21:14
322,Troy,42.6056,-83.1499,31.51,79,100,8.05,US,2022-02-07 16:24:35
323,Kalmunai,7.4167,81.8167,77.49,82,100,10.11,LK,2022-02-07 16:25:21
324,Nizhniy Tsasuchey,50.5167,115.1333,-2.06,100,80,2.06,RU,2022-02-07 16:25:21
325,Havoysund,70.9963,24.6622,27.48,78,98,13.69,NO,2022-02-07 16:25:21
326,Aguimes,27.9054,-15.4461,68.63,60,0,11.5,ES,2022-02-07 16:25:22
327,Sungairaya,0.7,108.9,76.75,91,100,3.58,ID,2022-02-07 16:25:22
328,Sesheke,-17.4759,24.2968,73.29,83,62,5.5,ZM,2022-02-07 16:24:03
329,Pueblo Nuevo,23.3833,-105.3833,55.29,30,0,3.38,MX,2022-02-07 16:25:22
330,Ambilobe,-13.2,49.05,76.01,92,76,3.69,MG,2022-02-07 16:25:23
331,Contamana,-7.3333,-75.0167,76.68,86,99,2.15,PE,2022-02-07 16:25:23
332,Maningrida,-12.0667,134.2667,79.38,84,98,4.99,AU,2022-02-07 16:25:23
333,Bairiki,1.3292,172.9752,80.6,78,20,6.91,KI,2022-02-07 16:25:24
334,Jacksonville,30.3322,-81.6556,52.05,91,100,9.22,US,2022-02-07 16:25:24
335,Sohbatpur,28.5202,68.5434,65.95,28,1,6.82,PK,2022-02-07 16:25:24
336,Trinidad,-14.8333,-64.9,84.18,58,75,16.11,BO,2022-02-07 16:25:25
337,Astana,51.1801,71.446,17.55,86,75,15.66,KZ,2022-02-07 16:25:25
338,Mount Gambier,-37.8333,140.7667,62.51,59,0,5.75,AU,2022-02-07 16:25:25
339,Taguatinga,-12.3857,-46.5711,84.7,61,100,3.65,BR,2022-02-07 16:25:26
340,Umm Kaddadah,13.6017,26.6876,70.54,13,1,14.27,SD,2022-02-07 16:25:26
341,Komsomolskiy,40.4272,71.7189,38.12,87,75,4.61,UZ,2022-02-07 16:25:26
342,Ketchikan,55.3422,-131.6461,43.27,81,100,5.75,US,2022-02-07 16:25:27
343,Klyuchi,52.2667,79.1667,7.83,92,16,7.7,RU,2022-02-07 16:25:27
344,Ouadda,8.0777,22.4007,88.84,11,2,7.43,CF,2022-02-07 16:25:27
345,Tilichiki,60.4667,166.1,-13.99,86,6,8.55,RU,2022-02-07 16:25:29
346,Gornopravdinsk,60.05,69.9,12.24,90,88,10.04,RU,2022-02-07 16:25:29
347,Manicore,-5.8092,-61.3003,80.67,86,99,2.46,BR,2022-02-07 16:25:29
348,Lishui,28.4604,119.9103,41.11,97,100,3.53,CN,2022-02-07 16:25:30
349,Boralday,43.3578,76.8594,31.86,93,100,4.47,KZ,2022-02-07 16:25:30
350,Barra Patuca,15.8,-84.2833,79.68,63,26,6.44,HN,2022-02-07 16:25:31
351,Shingu,33.7333,135.9833,38.91,64,48,5.97,JP,2022-02-07 16:25:31
352,Carutapera,-1.195,-46.02,84.02,72,94,7.25,BR,2022-02-07 16:25:32
353,Yulara,-25.2406,130.9889,80.44,39,40,6.91,AU,2022-02-07 16:25:32
354,Santa Margherita Ligure,44.3346,9.212,58.91,23,0,1.99,IT,2022-02-07 16:25:32
355,High Rock,26.6208,-78.2833,74.82,70,1,10.74,BS,2022-02-07 16:25:33
356,Vila,42.0304,-8.1588,58.69,39,13,4.79,PT,2022-02-07 16:25:33
357,Yuancheng,36.652,107.7896,19.17,83,25,2.59,CN,2022-02-07 16:25:33
358,Aksarka,66.5606,67.7975,-0.63,94,100,8.59,RU,2022-02-07 16:25:34
359,Ampanihy,-24.7,44.75,80.78,68,100,20.71,MG,2022-02-07 16:25:34
360,Virginia Beach,36.8529,-75.978,46.02,87,100,10.36,US,2022-02-07 16:24:50
361,Namibe,-15.1961,12.1522,77.14,65,32,17.16,AO,2022-02-07 16:25:35
362,Beloha,-25.1667,45.05,81.39,67,100,16.24,MG,2022-02-07 16:25:35
363,Eslov,55.8393,13.3039,40.44,85,20,16.2,SE,2022-02-07 16:25:35
364,Salinas,36.6777,-121.6555,56.7,66,0,11.5,US,2022-02-07 16:25:01
365,Puerto Leguizamo,-0.1934,-74.7819,79.65,87,100,2.26,CO,2022-02-07 16:26:36
366,Winneba,5.3511,-0.6231,86.47,69,80,13.98,GH,2022-02-07 16:26:36
367,Pisco,-13.7,-76.2167,72.01,83,20,9.22,PE,2022-02-07 16:26:36
368,Varhaug,58.6147,5.6457,42.35,71,99,16.11,NO,2022-02-07 16:26:37
369,Vypolzovo,57.8767,33.6986,30.74,97,100,10.13,RU,2022-02-07 16:26:37
370,Plouzane,48.3833,-4.6167,53.92,93,100,8.05,FR,2022-02-07 16:26:37
371,Banda Aceh,5.5577,95.3222,78.1,82,100,3.44,ID,2022-02-07 16:26:38
372,Sulangan,11.1373,123.7228,79.86,81,26,15.23,PH,2022-02-07 16:26:38
373,Bambanglipuro,-7.95,110.2833,76.77,86,100,4.45,ID,2022-02-07 16:26:38
374,Los Llanos De Aridane,28.6585,-17.9182,64.15,73,75,16.11,ES,2022-02-07 16:26:39
375,Kuusamo,65.9667,29.1833,21.24,93,100,4.61,FI,2022-02-07 16:26:39
376,Inhambane,-23.865,35.3833,78.78,94,40,16.11,MZ,2022-02-07 16:26:39
377,Bengkulu,-3.8004,102.2655,75.94,88,66,6.38,ID,2022-02-07 16:26:40
378,Taree,-31.9,152.4667,60.73,88,83,8.05,AU,2022-02-07 16:26:40
379,Yar-Sale,66.8333,70.8333,1.62,89,100,14.63,RU,2022-02-07 16:26:40
380,Sandnessjoen,66.0217,12.6316,37.38,81,40,7.0,NO,2022-02-07 16:26:41
381,Bang Saphan,11.2126,99.5117,75.49,81,7,3.02,TH,2022-02-07 16:26:41
382,Ziro,27.6333,93.8333,33.12,94,49,1.23,IN,2022-02-07 16:26:41
383,Ballina,-28.8667,153.5667,66.16,82,75,10.36,AU,2022-02-07 16:26:42
384,Havelock,34.8791,-76.9013,53.98,86,97,7.0,US,2022-02-07 16:26:42
385,Kavieng,-2.5744,150.7967,81.46,78,96,4.23,PG,2022-02-07 16:26:42
386,Auki,-8.7676,160.7034,79.48,87,100,9.19,SB,2022-02-07 16:26:43
387,Carballo,43.213,-8.691,62.01,85,7,7.99,ES,2022-02-07 16:26:43
388,Benghazi,32.1167,20.0667,61.79,66,91,9.26,LY,2022-02-07 16:25:27
389,Rio Grande,-32.035,-52.0986,80.71,48,5,18.25,BR,2022-02-07 16:26:43
390,Catamarca,-28.4696,-65.7852,85.77,42,11,1.99,AR,2022-02-07 16:26:44
391,Wageningen,51.9667,5.6667,45.18,75,100,12.66,NL,2022-02-07 16:26:44
392,Kharp,66.8014,65.8081,-4.2,99,100,0.47,RU,2022-02-07 16:26:44
393,Haines Junction,60.7522,-137.5108,12.9,96,92,4.47,CA,2022-02-07 16:26:44
394,Cherskiy,68.75,161.3,-33.38,100,28,0.78,RU,2022-02-07 16:26:45
395,Buin,-33.7333,-70.75,85.05,26,0,8.68,CL,2022-02-07 16:26:45
396,Kanniyakumari,8.0833,77.5667,79.5,74,26,4.92,IN,2022-02-07 16:26:45
397,Monrovia,6.3005,-10.7969,83.97,65,73,12.8,LR,2022-02-07 16:26:46
398,Bafra,41.5678,35.9069,51.58,66,29,11.45,TR,2022-02-07 16:26:46
399,Arawa,-6.2132,155.5367,79.02,91,100,4.23,PG,2022-02-07 16:26:46
400,Sawakin,19.1059,37.3321,73.44,64,10,13.69,SD,2022-02-07 16:26:47
401,Constitucion,-35.3333,-72.4167,69.89,62,45,6.78,CL,2022-02-07 16:26:47
402,Hofn,64.2539,-15.2082,32.02,80,75,16.11,IS,2022-02-07 16:26:47
403,Grand-Lahou,5.1367,-5.0242,84.16,67,98,11.68,CI,2022-02-07 16:26:48
404,Williams Lake,52.1415,-122.1445,40.57,56,20,6.91,CA,2022-02-07 16:26:48
405,Belyy Yar,53.6039,91.3903,-11.31,84,19,2.24,RU,2022-02-07 16:26:48
406,Alta Floresta,-9.8756,-56.0861,79.3,87,97,4.29,BR,2022-02-07 16:26:49
407,Port Lincoln,-34.7333,135.8667,75.34,54,46,13.18,AU,2022-02-07 16:26:49
408,Bereda,43.2686,-7.5406,55.99,68,15,5.66,ES,2022-02-07 16:26:49
409,Cidreira,-30.1811,-50.2056,76.82,41,0,15.23,BR,2022-02-07 16:26:50
410,Kisangani,0.5167,25.2,87.82,28,15,1.54,CD,2022-02-07 16:26:50
411,Upington,-28.4478,21.2561,89.98,35,20,5.75,ZA,2022-02-07 16:26:25
412,Avera,33.194,-82.5271,42.91,73,98,7.36,US,2022-02-07 16:27:50
413,Gualaquiza,-3.4,-78.55,68.36,88,98,2.35,EC,2022-02-07 16:27:51
414,Bo Phloi,14.3236,99.5161,84.31,50,97,3.44,TH,2022-02-07 16:27:51
415,Iguape,-24.7081,-47.5553,80.76,64,55,8.95,BR,2022-02-07 16:27:51
416,Tigil,57.8,158.6667,2.7,89,66,3.96,RU,2022-02-07 16:27:52
417,Galle,6.0367,80.217,79.43,73,100,4.7,LK,2022-02-07 16:27:52
418,Waraseoni,21.75,80.0333,67.39,31,11,3.74,IN,2022-02-07 16:27:52
419,Aklavik,68.2191,-135.0107,-29.2,62,20,10.36,CA,2022-02-07 16:27:53
420,Lucapa,-8.4192,20.7447,71.56,89,96,4.36,AO,2022-02-07 16:27:53
421,Inuvik,68.3499,-133.7218,-29.16,67,40,6.91,CA,2022-02-07 16:27:53
422,Governador Valadares,-18.8511,-41.9494,79.66,81,100,4.18,BR,2022-02-07 16:25:46
423,Vanavara,60.34,102.2797,-4.25,95,98,7.31,RU,2022-02-07 16:27:54
424,Natchez,31.5604,-91.4032,49.89,59,0,4.61,US,2022-02-07 16:27:54
425,Tateyama,34.9833,139.8667,42.1,53,65,11.36,JP,2022-02-07 16:27:55
426,Urumqi,43.801,87.6005,7.75,85,46,2.24,CN,2022-02-07 16:26:12
427,Rosarito,32.3333,-117.0333,67.64,26,0,10.67,MX,2022-02-07 16:27:55
428,Waipawa,-41.4122,175.5153,59.63,96,100,4.79,NZ,2022-02-07 16:27:55
429,Westport,41.1415,-73.3579,37.8,94,100,5.75,US,2022-02-07 16:25:35
430,Guerrero Negro,27.9769,-114.0611,61.75,41,0,1.54,MX,2022-02-07 16:27:56
431,Vestmannaeyjar,63.4427,-20.2734,34.79,64,40,32.21,IS,2022-02-07 16:27:56
432,Hvolsvollur,63.7533,-20.2243,34.47,70,100,34.18,IS,2022-02-07 16:27:56
433,Karratha,-20.7377,116.8463,84.15,78,94,5.19,AU,2022-02-07 16:27:57
434,Zabaykalsk,49.6333,117.3167,-2.29,100,62,3.13,RU,2022-02-07 16:27:57
435,Bontang,0.1333,117.5,78.42,86,100,10.65,ID,2022-02-07 16:27:57
436,Gazalkent,41.5581,69.7708,37.76,90,100,3.0,UZ,2022-02-07 16:27:58
437,Arman,59.7,150.1667,-4.99,75,87,8.75,RU,2022-02-07 16:27:58
438,Maceio,-9.6658,-35.7353,89.04,51,40,13.8,BR,2022-02-07 16:24:07
439,Vila Velha,-20.3297,-40.2925,84.15,78,75,12.66,BR,2022-02-07 16:27:58
440,Poltavka,54.3663,71.7632,2.32,90,8,7.09,RU,2022-02-07 16:27:59
441,Korhogo,9.45,-5.6333,96.49,9,12,6.82,CI,2022-02-07 16:27:59
442,Faanui,-16.4833,-151.75,81.28,75,98,19.48,PF,2022-02-07 16:27:59
443,Fillan,63.6064,8.9696,37.38,97,95,5.79,NO,2022-02-07 16:27:59
444,Umm Lajj,25.0213,37.2685,71.35,50,0,18.97,SA,2022-02-07 16:28:00
445,Mnogovershinnyy,53.9353,139.9242,0.34,93,100,4.92,RU,2022-02-07 16:28:00
446,Murashi,59.3999,48.9615,10.02,100,100,1.95,RU,2022-02-07 16:28:00
447,Kulu,39.0951,33.0799,27.14,89,89,2.89,TR,2022-02-07 16:28:01
448,Keuruu,62.2667,24.7,29.8,84,100,3.6,FI,2022-02-07 16:28:01
449,Korla,41.7597,86.1469,26.69,43,94,4.0,CN,2022-02-07 16:27:10
450,Saint-Ambroise,48.5501,-71.3324,17.58,92,100,4.99,CA,2022-02-07 16:25:13
451,Dingle,10.9995,122.6711,75.69,88,11,9.31,PH,2022-02-07 16:28:01
452,Svetlyy,54.675,20.1347,37.45,87,14,16.82,RU,2022-02-07 16:28:02
453,Shahrud,36.4182,54.9763,35.31,55,27,4.5,IR,2022-02-07 16:28:02
454,Yerbogachen,61.2767,108.0108,-24.92,100,100,3.6,RU,2022-02-07 16:28:02
455,Papillion,41.1544,-96.0422,43.5,55,100,9.22,US,2022-02-07 16:28:03
456,Fare,-16.7,-151.0167,81.16,75,100,19.42,PF,2022-02-07 16:28:03
457,Smoky Lake,54.1169,-112.4686,42.49,80,100,1.14,CA,2022-02-07 16:29:03
458,Alyangula,-13.8483,136.4192,75.07,100,73,0.0,AU,2022-02-07 16:29:03
459,Khandyga,62.6667,135.6,-37.86,99,65,1.19,RU,2022-02-07 16:29:04
460,Richards Bay,-28.783,32.0377,76.6,77,16,5.88,ZA,2022-02-07 16:29:04
461,Brokopondo,4.75,-55.1667,81.99,70,56,0.63,SR,2022-02-07 16:29:04
462,Nome,64.5011,-165.4064,-7.53,49,0,23.02,US,2022-02-07 16:29:05
463,Dayong,25.0209,118.2898,55.08,95,30,2.13,CN,2022-02-07 16:29:05
464,Okhotsk,59.3833,143.3,-1.28,77,95,8.97,RU,2022-02-07 16:29:05
465,Deder,9.3167,41.45,61.57,54,90,10.27,ET,2022-02-07 16:29:06
466,Antalaha,-14.9003,50.2788,78.98,86,96,0.98,MG,2022-02-07 16:29:06
467,Sorong,-0.8833,131.25,78.93,83,55,4.43,ID,2022-02-07 16:29:06
468,Sungaipenuh,-2.0833,101.3833,64.08,89,100,2.3,ID,2022-02-07 16:29:07
469,Miandrivazo,-19.5167,45.4667,80.96,74,99,7.99,MG,2022-02-07 16:29:07
470,Male,4.1748,73.5089,84.15,70,75,9.22,MV,2022-02-07 16:29:07
471,Rasskazovo,52.6714,41.9033,29.73,95,93,12.66,RU,2022-02-07 16:29:08
472,Tutoia,-2.7619,-42.2744,89.58,67,70,11.59,BR,2022-02-07 16:29:08
473,Brae,60.3964,-1.353,44.51,91,100,34.18,GB,2022-02-07 16:29:08
474,Port Blair,11.6667,92.75,78.84,78,40,12.66,IN,2022-02-07 16:29:09
475,Ulladulla,-35.35,150.4667,63.88,84,81,6.15,AU,2022-02-07 16:29:09
476,Natal,-5.795,-35.2094,89.82,55,40,16.11,BR,2022-02-07 16:25:57
477,Marzuq,14.4,46.4667,68.36,46,12,2.24,YE,2022-02-07 16:29:09
478,May Pen,17.9645,-77.2451,78.24,47,35,6.42,JM,2022-02-07 16:29:10
479,Hit,33.6416,42.8251,56.01,54,6,7.99,IQ,2022-02-07 16:29:10
480,Margate,51.3813,1.3862,49.86,58,11,4.0,GB,2022-02-07 16:29:10
481,Maniitsoq,65.4167,-52.9,2.21,86,100,16.42,GL,2022-02-07 16:29:11
482,Mbandaka,0.0487,18.2603,91.81,26,4,3.09,CD,2022-02-07 16:29:11
483,Micheweni,-4.9667,39.8333,80.26,79,90,11.48,TZ,2022-02-07 16:29:11
484,Ebolowa,2.9,11.15,93.6,18,70,2.66,CM,2022-02-07 16:29:12
485,Nang Rong,14.6377,102.7914,84.33,44,98,2.13,TH,2022-02-07 16:29:12
486,Miyako,39.6367,141.9525,27.37,65,35,4.12,JP,2022-02-07 16:29:12
487,Marawi,7.9986,124.2928,67.64,74,51,3.11,PH,2022-02-07 16:29:13
488,Halifax,44.6453,-63.5724,34.21,80,100,3.0,CA,2022-02-07 16:25:11
489,Bogorodskoye,56.55,37.8833,32.09,93,99,11.81,RU,2022-02-07 16:29:13
490,Lalibela,12.0333,39.0333,69.4,43,78,4.97,ET,2022-02-07 16:29:13
491,Akyab,20.15,92.9,66.45,59,13,15.01,MM,2022-02-07 16:29:14
492,Bathsheba,13.2167,-59.5167,83.01,69,75,24.16,BB,2022-02-07 16:29:14
493,Hammond,41.5834,-87.5,24.13,76,100,11.5,US,2022-02-07 16:29:14
494,Hearst,49.6835,-83.6665,-0.15,89,61,4.38,CA,2022-02-07 16:29:14
495,Abu Kamal,34.4506,40.9171,59.59,44,70,1.43,SY,2022-02-07 16:29:15
496,Magugu,-4.0167,35.7667,68.52,80,100,1.45,TZ,2022-02-07 16:29:15
497,Narsaq,60.9167,-46.05,12.42,54,100,32.7,GL,2022-02-07 16:29:15
498,Ust-Kan,50.9276,84.761,0.59,84,34,3.89,RU,2022-02-07 16:29:16
499,Kautokeino,69.0125,23.0412,-2.13,100,66,2.86,NO,2022-02-07 16:29:16
500,Lasa,46.6166,10.7002,35.69,86,87,9.17,IT,2022-02-07 16:29:16
501,Broken Hill,-31.95,141.4333,69.51,37,80,9.22,AU,2022-02-07 16:29:16
502,Sol-Iletsk,51.1631,54.9918,20.88,97,100,6.6,RU,2022-02-07 16:29:17
503,Lufilufi,-13.8745,-171.5986,74.98,71,100,10.4,WS,2022-02-07 16:30:17
504,Xichang,27.8964,102.2634,40.91,70,1,1.88,CN,2022-02-07 16:30:17
505,Newcastle,-32.9272,151.7765,64.71,93,100,3.0,AU,2022-02-07 16:30:18
506,Port Macquarie,-31.4333,152.9167,60.89,78,76,8.61,AU,2022-02-07 16:30:18
507,Lae,-6.7221,146.9847,78.15,82,100,6.55,PG,2022-02-07 16:30:18
508,San Luis,-33.295,-66.3356,81.48,22,0,4.03,AR,2022-02-07 16:28:38
509,Bafq,31.6128,55.4107,50.52,28,3,10.4,IR,2022-02-07 16:30:19
510,Perelyub,51.8667,50.3667,3.11,100,75,3.65,RU,2022-02-07 16:30:19
511,Palora,-1.7,-77.9333,71.76,89,100,1.14,EC,2022-02-07 16:30:19
512,Little Current,45.9793,-81.9248,32.41,91,100,5.93,CA,2022-02-07 16:30:19
513,Karaton,-6.3424,106.1045,78.96,94,100,0.56,ID,2022-02-07 16:30:20
514,Santa Maria,-29.6842,-53.8069,76.3,47,75,5.75,BR,2022-02-07 16:30:20
515,Kushmurun,52.4503,64.6311,18.79,94,93,13.27,KZ,2022-02-07 16:30:20
516,Nago,26.5881,127.9761,68.45,80,100,16.87,JP,2022-02-07 16:30:21
517,Black River,18.0264,-77.8487,83.98,56,14,8.3,JM,2022-02-07 16:30:21
518,Ilhabela,-23.7781,-45.3581,75.11,94,100,8.57,BR,2022-02-07 16:30:21
519,Jalu,29.0331,21.5482,64.35,24,24,3.0,LY,2022-02-07 16:30:22
520,Vokhtoga,58.8147,41.0461,18.39,95,99,9.22,RU,2022-02-07 16:30:22
521,Tromso,69.6496,18.957,28.42,86,75,16.11,NO,2022-02-07 16:30:22
522,Buala,-8.145,159.5921,81.25,82,100,10.18,SB,2022-02-07 16:30:23
523,Erzin,36.9559,36.2,54.12,78,71,2.93,TR,2022-02-07 16:30:23
524,Porto Novo,6.4965,2.6036,87.62,57,62,11.3,BJ,2022-02-07 16:29:46
525,Yangambi,0.8102,24.4336,79.99,32,13,1.74,CD,2022-02-07 16:30:23
526,Baykit,61.67,96.37,-4.92,95,99,4.18,RU,2022-02-07 16:30:24
527,Weston,26.1004,-80.3998,81.03,78,0,3.0,US,2022-02-07 16:30:24
528,Goroka,-6.0834,145.3873,60.58,98,99,1.81,PG,2022-02-07 16:30:25
529,Alofi,-19.0595,-169.9187,73.29,94,100,8.05,NU,2022-02-07 16:30:25
530,Clyde River,70.4692,-68.5914,-37.97,67,20,5.75,CA,2022-02-07 16:30:25
531,Dharchula,29.85,80.5333,46.45,74,45,5.35,IN,2022-02-07 16:30:26
532,Pontal Do Parana,-25.6533,-48.5128,89.73,69,44,8.01,BR,2022-02-07 16:30:26
533,Uruzgan,32.8333,66.0,37.44,40,0,5.1,AF,2022-02-07 16:30:26
534,Kungurtug,50.5994,97.5228,-7.22,94,97,1.48,RU,2022-02-07 16:30:27
535,Sola,-13.8833,167.55,82.2,84,100,27.16,VU,2022-02-07 16:30:27
536,Araouane,18.9048,-3.5265,81.3,6,3,8.5,ML,2022-02-07 16:30:27
537,Eyl,7.9803,49.8164,75.09,70,47,18.9,SO,2022-02-07 16:30:28
538,Tura,25.5198,90.2201,53.62,72,6,3.06,IN,2022-02-07 16:30:28
539,Ust-Kuyga,70.0167,135.6,-44.63,100,98,3.09,RU,2022-02-07 16:30:29
540,Lorengau,-2.0226,147.2712,81.09,81,97,4.32,PG,2022-02-07 16:30:29
541,Bowen,-20.0167,148.2333,70.02,75,85,9.48,AU,2022-02-07 16:30:10
542,Vao,-22.6667,167.4833,80.15,86,64,18.66,NC,2022-02-07 16:30:29
543,Zharkent,44.1628,80.0,25.9,66,50,1.99,KZ,2022-02-07 16:30:30
544,Jijiang,29.2906,106.2542,47.5,80,100,5.77,CN,2022-02-07 16:30:30
545,Catabangan,13.8777,122.6615,74.59,92,94,6.62,PH,2022-02-07 16:30:30
546,New Baltimore,42.6811,-82.7369,31.17,80,100,12.5,US,2022-02-07 16:29:39
547,Ngunguru,-35.6167,174.5,74.16,99,99,7.45,NZ,2022-02-07 16:30:31
548,Panama City,8.9936,-79.5197,90.37,49,20,16.11,PA,2022-02-07 16:28:40
549,Nelson Bay,-32.7167,152.15,64.99,89,19,1.01,AU,2022-02-07 16:30:31
550,Yarega,63.4354,53.5765,12.81,94,100,5.77,RU,2022-02-07 16:30:32
551,Notse,6.95,1.1667,95.72,23,99,3.2,TG,2022-02-07 16:31:32
552,Meybod,32.2501,54.0166,51.82,29,6,9.89,IR,2022-02-07 16:31:32
553,Ko Samui,9.5357,99.9357,81.72,73,4,6.35,TH,2022-02-07 16:29:01
554,Ishigaki,24.3448,124.1572,67.3,81,98,23.64,JP,2022-02-07 16:31:32
555,Praya,14.9215,-23.5087,82.94,44,0,17.27,CV,2022-02-07 16:31:33
556,Huarmey,-10.0681,-78.1522,75.42,70,92,9.86,PE,2022-02-07 16:31:33
557,Wald-Michelbach,49.57,8.8317,42.49,67,81,9.26,DE,2022-02-07 16:31:33
558,Dwarka,22.2394,68.9678,70.59,70,0,8.81,IN,2022-02-07 16:31:34
559,Penzance,50.1186,-5.5371,51.76,94,61,15.17,GB,2022-02-07 16:31:34
560,Biu,10.6129,12.1946,81.36,13,18,7.05,NG,2022-02-07 16:31:34
561,Potosi,-19.5836,-65.7531,54.46,58,20,6.91,BO,2022-02-07 16:31:35
562,Panaba,21.2833,-88.2667,82.06,56,57,6.55,MX,2022-02-07 16:31:35
563,Areosa,41.7178,-8.8571,69.67,61,10,6.42,PT,2022-02-07 16:31:35
564,Cascais,38.6979,-9.4215,70.47,37,0,11.99,PT,2022-02-07 16:31:36
565,Alindao,5.0267,21.2088,84.34,18,64,3.36,CF,2022-02-07 16:31:36
566,Puro,12.4841,123.3827,77.2,87,42,10.74,PH,2022-02-07 16:31:36
567,Pemangkat,1.1667,108.9667,77.43,89,100,4.63,ID,2022-02-07 16:31:37
568,Asuncion,-25.3007,-57.6359,81.9,34,0,9.22,PY,2022-02-07 16:28:24
569,Nongstoin,25.5167,91.2667,41.41,89,10,1.72,IN,2022-02-07 16:31:37
570,Koslan,63.4564,48.8989,12.56,98,96,5.17,RU,2022-02-07 16:31:37
571,Kokopo,-4.352,152.2633,78.19,83,100,5.99,PG,2022-02-07 16:31:38
572,Along,28.1667,94.7667,47.75,90,25,1.48,IN,2022-02-07 16:31:38
573,Rio Grande City,26.3798,-98.8203,55.04,63,90,13.13,US,2022-02-07 16:31:38
574,Kavaratti,10.5669,72.642,78.48,69,31,10.38,IN,2022-02-07 16:31:38
575,Mpulungu,-8.7623,31.1141,72.32,80,97,2.66,ZM,2022-02-07 16:31:39
